time_us,gps_sec,raw1,raw2,raw3,raw4,raw5,raw6,vl53_mm,pitot_pa,air_speed,ultrason_mm,accX,accY,accZ,gyroX,gyroY,gyroZ,roll,pitch,yaw,lat,lon,gps_valid
1491649548,0,227,230,158,216,230,200,152,-111.60,-13.50,nan,-0.23,-0.12,0.99,-2.69,14.53,0.61,-7.00,13.12,-136.31,,,0
1491819684,0,227,230,158,216,229,199,154,-111.60,-13.50,nan,-0.27,-0.15,1.00,-1.04,2.56,-0.37,-7.31,14.51,-136.31,,,0
1491919680,0,227,230,158,216,230,199,156,-112.66,-13.56,nan,-0.25,-0.14,1.01,-3.11,3.78,-0.61,-7.55,14.82,-136.31,,,0
1492019684,0,228,230,158,216,230,199,152,-109.50,-13.37,nan,-0.24,-0.14,1.02,-0.61,2.69,-0.98,-7.60,15.05,-136.31,,,0
1492119692,0,228,231,158,216,230,200,156,-114.76,-13.69,nan,-0.26,-0.14,1.03,-0.67,2.75,-1.28,-7.62,15.16,-136.42,,,0
1492219688,0,228,230,159,216,230,199,159,-114.76,-13.69,nan,-0.28,-0.14,1.01,-1.95,3.85,-1.53,-7.76,15.37,-136.58,,,0
1492319688,0,227,230,158,216,230,198,158,-116.86,-13.81,nan,-0.31,-0.14,0.99,-0.73,3.85,-1.77,-7.86,15.79,-136.79,,,0
1492419680,0,227,230,158,216,229,198,154,-116.86,-13.81,nan,-0.30,-0.14,1.02,-0.24,2.26,-1.10,-7.90,16.09,-136.99,,,0
1492519692,0,226,231,157,216,230,198,152,-116.86,-13.81,nan,-0.29,-0.12,0.97,-1.77,-0.24,-0.85,-7.96,16.19,-137.09,,,0
1492619688,0,225,230,160,217,230,200,157,-117.92,-13.88,nan,-0.31,-0.14,1.00,0.79,-5.98,-1.10,-8.01,15.92,-137.17,,,0
1492719684,0,224,229,161,217,231,199,158,-112.66,-13.56,nan,-0.27,-0.14,1.03,1.53,-8.91,-1.34,-7.84,15.30,-137.19,,,0
1492819692,0,224,229,158,216,230,199,155,-117.92,-13.88,nan,-0.25,-0.13,0.98,2.08,-7.57,-1.28,-7.53,14.38,-137.19,,,0
1492919684,0,223,228,158,216,230,199,154,-117.92,-13.88,nan,-0.27,-0.13,1.02,2.26,-0.31,-0.92,-7.32,13.75,-137.21,,,0
1493019688,0,222,227,157,216,230,199,154,-117.92,-13.88,nan,-0.26,-0.12,1.00,-0.43,3.30,-1.46,-7.18,13.91,-137.35,,,0
1493119696,0,222,226,157,216,230,200,157,-114.76,-13.69,nan,-0.25,-0.14,1.02,-0.31,0.98,-1.28,-7.26,14.18,-137.53,,,0
1493219684,0,221,225,156,217,231,199,154,-117.92,-13.88,nan,-0.26,-0.14,0.96,-0.79,0.37,-0.92,-7.38,14.25,-137.67,,,0
1493319696,0,221,227,156,216,231,199,156,-121.07,-14.06,nan,-0.25,-0.13,0.96,-3.97,-2.69,-1.04,-7.61,14.18,-137.73,,,0
1493419684,0,220,225,155,217,230,200,154,-116.86,-13.81,nan,-0.24,-0.15,0.97,1.10,-5.62,-0.79,-7.73,13.84,-137.76,,,0
1493519688,0,220,224,155,216,231,199,156,-121.07,-14.06,nan,-0.24,-0.14,1.05,2.50,-4.21,-0.37,-7.64,13.30,-137.76,,,0
1493619688,0,219,224,154,216,231,199,153,-121.07,-14.06,nan,-0.24,-0.14,1.04,1.83,-2.44,-0.24,-7.44,12.95,-137.75,,,0
1493719692,0,219,224,154,214,230,199,151,-120.02,-14.00,nan,-0.25,-0.12,1.00,-1.04,2.20,-0.18,-7.34,12.89,-137.78,,,0
1493819680,0,218,223,153,214,233,202,153,-116.86,-13.81,nan,-0.29,-0.15,1.05,-2.99,2.44,-1.65,-7.53,13.34,-137.92,,,0
1493919680,0,218,223,153,215,231,199,148,-120.02,-14.00,nan,-0.25,-0.13,0.98,-3.11,-4.94,-3.66,-7.83,13.31,-138.21,,,0
1494019680,0,218,222,152,213,231,199,151,-126.33,-14.36,nan,-0.25,-0.12,1.02,-0.73,4.76,-1.04,-7.95,13.38,-138.47,,,0
1494119688,0,217,222,152,213,231,200,150,-126.33,-14.36,nan,-0.28,-0.13,1.02,1.34,16.97,-1.95,-7.78,14.50,-138.71,,,0
1494219684,0,216,221,153,213,230,200,156,-123.18,-14.18,nan,-0.30,-0.14,1.01,-1.46,10.44,0.37,-7.75,15.62,-138.96,,,0
1494319692,0,216,221,151,212,230,200,157,-126.33,-14.36,nan,-0.28,-0.12,0.93,-4.64,2.01,-2.20,-7.82,16.28,-139.08,,,0
1494419688,0,216,221,151,213,230,200,159,-121.07,-14.06,nan,-0.29,-0.15,1.02,1.71,3.48,-2.56,-8.06,16.48,-139.36,,,0
1494519684,0,216,220,150,213,229,199,159,-121.07,-14.06,nan,-0.30,-0.14,1.00,0.79,3.78,-1.34,-7.97,16.78,-139.59,,,0
1494619680,0,215,220,150,212,229,199,159,-126.33,-14.36,nan,-0.30,-0.14,0.99,-0.06,3.42,-1.16,-8.06,17.08,-139.76,,,0
1494719692,0,215,220,149,211,229,199,156,-127.38,-14.42,nan,-0.32,-0.14,0.99,-0.49,0.37,-1.65,-8.15,17.37,-139.93,,,0
1494819684,0,215,219,149,211,228,199,158,-129.49,-14.54,nan,-0.33,-0.15,1.00,0.49,-0.31,-1.77,-8.29,17.35,-140.11,,,0
1494919680,0,214,218,148,210,227,200,157,-131.59,-14.66,nan,-0.32,-0.13,0.98,-1.77,2.20,-2.08,-8.32,17.46,-140.30,,,0
1495019684,0,213,218,148,210,228,199,153,-131.59,-14.66,nan,-0.33,-0.17,1.02,-1.16,-0.37,-2.44,-8.57,17.44,-140.54,,,0
1495119692,0,213,219,148,210,227,199,158,-136.85,-14.95,nan,-0.33,-0.15,0.99,0.73,-1.10,-1.53,-8.66,17.34,-140.73,,,0
1495219688,0,213,218,147,210,227,199,159,-132.65,-14.72,nan,-0.31,-0.17,1.02,1.83,0.06,-1.10,-8.68,17.15,-140.86,,,0
1495319680,0,213,217,147,209,227,199,159,-131.59,-14.66,nan,-0.32,-0.14,0.95,-0.18,-0.43,-1.46,-8.51,17.26,-140.98,,,0
1495419680,0,213,218,148,210,227,199,161,-131.59,-14.66,nan,-0.33,-0.13,1.01,1.59,-3.36,-2.01,-8.37,17.18,-141.11,,,0
1495519692,0,214,218,148,210,228,199,158,-135.80,-14.89,nan,-0.30,-0.14,1.00,1.89,-3.17,-2.01,-8.22,16.73,-141.28,,,0
1495619692,0,214,218,149,211,228,200,157,-135.80,-14.89,nan,-0.30,-0.15,1.00,0.98,-2.38,-2.26,-8.15,16.44,-141.46,,,0
1495719688,0,214,219,150,211,228,199,154,-132.65,-14.72,nan,-0.28,-0.14,0.98,-0.06,-0.92,-2.20,-8.20,16.25,-141.67,,,0
1495819684,0,213,218,149,212,227,199,158,-136.85,-14.95,nan,-0.31,-0.15,1.01,-0.31,-0.98,-2.20,-8.29,16.16,-141.89,,,0
1495919680,0,214,219,148,210,228,199,154,-135.80,-14.89,nan,-0.28,-0.15,0.96,0.00,-4.15,-2.26,-8.38,16.00,-142.11,,,0
1496019688,0,213,218,148,210,227,199,157,-142.11,-15.23,nan,-0.29,-0.16,1.03,1.22,-2.44,-1.77,-8.45,15.50,-142.27,,,0
1496119680,0,213,218,147,210,227,199,161,-136.85,-14.95,nan,-0.30,-0.15,1.00,-1.16,0.43,-1.83,-8.54,15.45,-142.45,,,0
1496219680,0,213,218,148,210,227,199,155,-136.85,-14.95,nan,-0.28,-0.14,0.99,0.49,-1.83,-1.77,-8.58,15.37,-142.62,,,0
1496319680,0,212,218,147,209,227,200,156,-136.85,-14.95,nan,-0.29,-0.15,1.02,0.73,-0.79,-1.46,-8.56,15.13,-142.77,,,0
1496419688,0,212,217,147,209,226,198,157,-141.06,-15.18,nan,-0.30,-0.15,1.02,2.50,3.23,-0.85,-8.42,15.30,-142.90,,,0
1496519696,0,212,217,147,209,227,198,157,-138.96,-15.06,nan,-0.27,-0.13,0.95,3.17,-2.20,-1.34,-8.21,15.41,-143.05,,,0
1496619688,0,212,216,146,208,226,198,151,-138.96,-15.06,nan,-0.28,-0.13,0.97,0.92,-5.49,-2.38,-8.04,15.02,-143.17,,,0
