time_us,gps_sec,raw1,raw2,raw3,raw4,raw5,raw6,vl53_mm,pitot_pa,air_speed,ultrason_mm,accX,accY,accZ,gyroX,gyroY,gyroZ,roll,pitch,yaw,lat,lon,gps_valid
1298847752,0,217,216,177,213,217,300,68,357.62,24.16,33.49,-0.09,-0.13,1.01,2.08,0.61,1.77,-6.84,5.42,-100.55,,,0
1299011604,0,218,217,177,212,217,301,66,361.83,24.31,36.38,-0.09,-0.13,1.01,1.59,1.53,0.85,-6.56,5.56,-100.37,,,0
1299111608,0,217,217,177,212,217,301,61,356.57,24.13,35.36,-0.09,-0.12,1.02,0.06,1.22,0.31,-6.54,5.67,-100.32,,,0
1299211616,0,217,217,179,213,217,301,55,356.57,24.13,36.38,-0.09,-0.13,1.02,-1.28,0.55,-0.12,-6.66,5.70,-100.33,,,0
1299311604,0,217,217,178,214,216,301,65,353.41,24.02,37.06,-0.09,-0.13,1.02,-1.40,-0.37,-0.67,-6.84,5.65,-100.37,,,0
1299411604,0,217,217,178,212,217,301,63,359.72,24.23,32.30,-0.09,-0.12,1.02,-0.12,-1.28,-1.16,-6.94,5.50,-100.44,,,0
1299511608,0,217,217,179,211,217,301,64,357.62,24.16,37.06,-0.09,-0.12,1.02,1.04,-1.16,-1.71,-6.91,5.33,-100.56,,,0
1299611616,0,218,219,180,212,217,303,67,359.72,24.23,36.38,-0.09,-0.12,1.02,1.22,-0.55,-2.32,-6.83,5.20,-100.76,,,0
1299711612,0,217,217,181,213,216,301,53,359.72,24.23,36.04,-0.09,-0.13,1.02,0.37,0.37,-2.99,-6.80,5.15,-101.01,,,0
1299811604,0,217,217,182,213,217,306,70,361.83,24.31,33.49,-0.08,-0.12,1.02,-0.67,0.55,-3.78,-6.87,5.13,-101.35,,,0
1299911612,0,218,216,183,213,217,302,63,359.72,24.23,34.00,-0.08,-0.12,1.02,-0.73,0.18,-4.21,-7.00,5.08,-101.76,,,0
1300011612,0,218,217,183,215,212,300,63,356.57,24.13,37.74,-0.08,-0.13,1.01,-0.55,-0.24,-5.19,-7.16,4.99,-102.23,,,0
1300111608,0,218,216,183,214,215,300,57,362.88,24.34,38.25,-0.08,-0.12,1.02,0.43,-0.79,-5.74,-7.21,4.83,-102.77,,,0
1300211616,0,218,218,184,213,215,302,70,357.62,24.16,37.06,-0.08,-0.13,1.02,1.04,-0.85,-6.35,-7.17,4.65,-103.35,,,0
1300311604,0,218,218,184,212,216,301,61,354.46,24.06,36.04,-0.08,-0.12,1.02,0.98,-0.55,-6.96,-7.11,4.49,-104.00,,,0
1300411620,0,219,218,184,213,216,303,53,353.41,24.02,35.70,-0.08,-0.12,1.02,0.43,0.43,-7.69,-7.08,4.40,-104.72,,,0
1300511604,0,217,217,182,212,217,301,70,357.62,24.16,37.40,-0.08,-0.13,1.01,-0.24,1.34,-8.12,-7.12,4.41,-105.51,,,0
1300611608,0,218,218,183,213,216,302,51,356.57,24.13,30.94,-0.08,-0.12,1.01,-0.43,0.92,-8.54,-7.21,4.44,-106.36,,,0
1300711608,0,217,222,184,213,217,302,58,357.62,24.16,31.62,-0.09,-0.12,1.02,0.00,-0.43,-8.91,-7.28,4.37,-107.24,,,0
1300811612,0,216,214,184,213,217,301,57,359.72,24.23,32.13,-0.08,-0.13,1.02,0.55,-0.98,-8.97,-7.30,4.22,-108.12,,,0
1300911604,0,217,217,184,208,217,302,77,356.57,24.13,35.02,-0.08,-0.13,1.01,0.92,-0.85,-9.40,-7.29,4.05,-109.02,,,0
1301011608,0,218,219,184,213,217,302,54,357.62,24.16,32.47,-0.08,-0.13,1.02,-0.12,-0.43,-10.01,-7.33,3.93,-109.98,,,0
1301111612,0,218,219,183,213,216,302,65,354.46,24.06,30.77,-0.08,-0.13,1.02,-0.79,0.24,-10.62,-7.41,3.87,-111.01,,,0
1301211604,0,213,219,184,213,217,303,67,354.46,24.06,35.70,-0.09,-0.13,1.02,-0.31,0.61,-11.05,-7.47,3.86,-112.09,,,0
1301311604,0,217,218,184,213,217,301,64,361.83,24.31,32.13,-0.08,-0.13,1.02,0.31,0.85,-11.54,-7.49,3.89,-113.24,,,0
1301411612,0,218,219,183,213,217,303,58,359.72,24.23,34.51,-0.09,-0.14,1.02,0.31,-0.67,-12.21,-7.52,3.83,-114.30,,,0
1301511608,0,218,218,182,213,218,302,53,353.41,24.02,31.62,-0.09,-0.13,1.02,0.24,-0.73,-12.82,-7.56,3.71,-115.53,,,0
1301611604,0,218,218,179,213,217,302,56,357.62,24.16,31.62,-0.09,-0.13,1.02,0.06,0.06,-13.31,-7.59,3.64,-116.83,,,0
1301711604,0,219,217,175,213,218,302,39,354.46,24.06,30.60,-0.10,-0.13,1.01,-0.18,0.79,-13.85,-7.66,3.67,-118.19,,,0
1301811616,0,218,218,169,214,217,301,46,354.46,24.06,33.32,-0.11,-0.12,1.01,-0.67,2.26,-13.92,-7.77,3.84,-119.60,,,0
1301911604,0,218,219,164,213,218,302,54,353.41,24.02,33.49,-0.11,-0.13,1.02,-1.10,3.36,-13.49,-7.93,4.15,-121.01,,,0
1302011608,0,218,218,162,213,218,302,61,356.57,24.13,32.30,-0.11,-0.14,1.03,-0.31,2.50,-12.88,-8.04,4.48,-122.37,,,0
1302111616,0,218,218,160,213,218,302,72,354.46,24.06,37.06,-0.12,-0.13,1.03,0.31,-0.49,-12.21,-8.07,4.61,-123.63,,,0
1302211604,0,218,218,158,213,217,302,57,356.57,24.13,37.57,-0.12,-0.13,1.02,0.18,-1.89,-11.84,-8.06,4.50,-124.80,,,0
1302311608,0,219,218,158,213,218,302,57,353.41,24.02,36.55,-0.11,-0.13,1.01,0.31,-1.22,-11.60,-8.05,4.37,-125.95,,,0
1302411604,0,219,218,158,214,218,302,62,353.41,24.02,38.25,-0.11,-0.13,1.01,0.55,0.73,-11.47,-8.04,4.37,-127.09,,,0
1302511612,0,218,218,157,214,218,302,53,354.46,24.06,37.06,-0.12,-0.13,1.02,0.61,1.77,-11.23,-8.00,4.54,-128.24,,,0
1302611616,0,218,218,157,214,218,302,58,357.62,24.16,40.12,-0.12,-0.13,1.02,0.24,1.04,-10.86,-7.98,4.72,-129.36,,,0
1302711612,0,218,218,157,213,218,302,43,351.31,23.95,33.49,-0.12,-0.13,1.02,-0.18,-0.61,-10.50,-7.99,4.79,-130.44,,,0
1302811616,0,218,218,157,213,217,303,53,353.41,24.02,34.68,-0.12,-0.13,1.02,-0.24,-1.40,-10.25,-8.04,4.72,-131.45,,,0
1302911612,0,218,218,156,213,217,302,66,353.41,24.02,32.98,-0.12,-0.14,1.02,0.06,-0.79,-10.07,-8.07,4.64,-132.45,,,0
1303011612,0,218,219,156,214,217,302,62,351.31,23.95,37.57,-0.12,-0.13,1.01,0.18,0.12,-9.83,-8.09,4.65,-133.43,,,0
1303111616,0,218,218,156,214,217,302,67,354.46,24.06,41.31,-0.12,-0.13,1.02,0.00,0.55,-9.52,-8.09,4.73,-134.40,,,0
1303211616,0,218,218,156,213,217,303,71,353.41,24.02,36.04,-0.12,-0.13,1.02,-0.18,0.37,-9.09,-8.10,4.82,-135.34,,,0
1303311604,0,218,218,157,214,217,302,72,353.41,24.02,37.74,-0.12,-0.13,1.02,0.06,-0.06,-8.85,-8.10,4.87,-136.22,,,0
1303411612,0,218,218,158,214,218,302,66,351.31,23.95,34.00,-0.12,-0.13,1.02,0.43,0.12,-8.61,-8.06,4.89,-137.09,,,0
1303511604,0,218,218,157,214,218,303,67,353.41,24.02,33.49,-0.12,-0.13,1.01,0.61,0.73,-8.42,-8.02,4.97,-137.94,,,0
1303611604,0,219,218,156,214,217,303,71,349.20,23.88,33.49,-0.11,-0.13,1.01,0.31,0.98,-8.30,-8.00,5.08,-138.79,,,0
1303711604,0,219,218,157,214,218,302,70,353.41,24.02,33.32,-0.12,-0.13,1.02,-0.06,0.31,-8.12,-8.01,5.17,-139.62,,,0
1303811616,0,218,218,157,214,218,302,63,354.46,24.06,38.25,-0.12,-0.13,1.02,-0.24,-0.92,-8.00,-8.04,5.17,-140.42,,,0
