time_us,gps_sec,raw1,raw2,raw3,raw4,raw5,raw6,vl53_mm,pitot_pa,air_speed,ultrason_mm,accX,accY,accZ,gyroX,gyroY,gyroZ,roll,pitch,yaw,lat,lon,gps_valid
425073668,0,211,211,136,207,211,191,153,-3.24,-2.30,126.14,0.05,-0.14,1.01,1.46,-1.16,5.37,-8.22,-2.41,-3.69,,,0
425204888,0,211,211,136,206,210,191,157,-0.08,-0.37,130.39,0.06,-0.14,1.01,1.16,-0.92,2.44,-8.07,-2.63,-3.15,,,0
425304884,0,210,210,135,206,210,190,157,-2.19,-1.89,136.17,0.06,-0.15,1.00,-1.53,0.43,1.71,-8.18,-2.69,-2.94,,,0
425404892,0,210,210,134,206,210,190,151,-5.34,-2.95,134.47,0.05,-0.16,1.01,-1.46,-0.55,-0.06,-8.31,-2.70,-2.86,,,0
425504880,0,210,210,135,205,210,191,156,-5.34,-2.95,134.47,0.06,-0.16,1.00,0.67,0.24,-0.24,-8.39,-2.80,-2.89,,,0
425604888,0,210,210,134,206,209,191,151,-0.08,-0.37,135.66,0.06,-0.16,1.01,-0.06,0.55,-0.12,-8.36,-2.79,-2.91,,,0
425704900,0,210,209,134,206,210,190,156,-2.19,-1.89,137.87,0.06,-0.16,1.01,0.06,-0.43,-0.12,-8.40,-2.80,-2.92,,,0
425804880,0,211,210,134,206,210,190,157,-3.24,-2.30,135.15,0.06,-0.16,1.01,0.00,0.43,-0.06,-8.46,-2.86,-2.93,,,0
425904884,0,211,210,134,206,210,190,155,-0.08,-0.37,126.48,0.06,-0.16,1.01,0.12,-0.24,-0.12,-8.49,-2.87,-2.94,,,0
426004884,0,210,210,135,206,210,190,155,-0.08,-0.37,126.99,0.06,-0.16,1.01,0.12,0.31,-0.06,-8.54,-2.92,-2.94,,,0
426104884,0,209,210,135,206,210,190,149,-2.19,-1.89,127.84,0.06,-0.16,1.01,0.37,-0.18,-0.12,-8.57,-2.94,-2.96,,,0
426204880,0,211,210,135,206,211,190,159,-2.19,-1.89,128.18,0.06,-0.16,1.00,0.37,0.31,0.00,-8.59,-2.97,-2.96,,,0
426304884,0,211,211,135,206,210,190,146,-2.19,-1.89,128.18,0.06,-0.16,1.01,0.24,0.12,-0.06,-8.60,-2.98,-2.97,,,0
426404888,0,211,210,135,207,210,190,156,-3.24,-2.30,120.70,0.06,-0.16,1.01,0.55,0.06,-0.12,-8.61,-2.98,-2.97,,,0
426504884,0,210,210,134,205,209,188,154,-3.24,-2.30,121.72,0.06,-0.16,1.00,1.71,0.98,-0.43,-8.53,-3.00,-2.97,,,0
426604892,0,208,208,131,203,207,187,160,-2.19,-1.89,118.32,0.06,-0.15,1.01,1.59,0.79,-1.16,-8.43,-2.94,-2.98,,,0
426704888,0,207,207,131,202,206,186,149,-5.34,-2.95,117.98,0.06,-0.15,1.01,1.28,0.24,-1.59,-8.31,-2.93,-3.14,,,0
426804880,0,206,206,131,203,206,186,148,-7.45,-3.49,113.56,0.05,-0.15,1.01,1.77,0.79,-1.34,-8.19,-2.91,-3.30,,,0
426904888,0,206,206,131,202,205,185,151,-7.45,-3.49,117.30,0.05,-0.15,1.00,1.53,-0.06,-1.04,-8.06,-2.91,-3.42,,,0
427004884,0,206,207,130,202,205,186,153,-10.60,-4.16,119.85,0.05,-0.15,1.01,1.59,0.43,-0.79,-7.93,-2.92,-3.51,,,0
427104884,0,207,207,130,202,206,186,145,-7.45,-3.49,124.27,0.05,-0.14,1.01,1.34,0.43,-0.55,-7.82,-2.89,-3.59,,,0
427204888,0,209,209,132,204,208,188,151,2.02,1.82,127.84,0.05,-0.14,1.01,1.59,-0.12,-0.12,-7.72,-2.89,-3.62,,,0
427304892,0,208,207,132,202,207,185,157,-7.45,-3.49,131.92,0.05,-0.14,1.01,3.54,1.83,-0.06,-7.58,-2.86,-3.64,,,0
427404888,0,208,207,131,203,208,186,155,-3.24,-2.30,121.89,0.05,-0.14,1.01,2.69,-0.61,-0.79,-7.32,-2.76,-3.71,,,0
427504888,0,207,207,131,203,207,187,153,-3.24,-2.30,121.89,0.05,-0.14,1.01,3.11,1.16,-0.67,-7.08,-2.78,-3.80,,,0
427604884,0,208,208,132,203,207,187,155,-5.34,-2.95,122.91,0.05,-0.13,1.01,1.28,-0.24,-0.06,-6.94,-2.72,-3.85,,,0
427704880,0,208,208,132,203,206,188,147,-3.24,-2.30,121.89,0.05,-0.13,1.01,0.55,0.55,0.18,-6.90,-2.73,-3.83,,,0
427804892,0,207,207,131,203,207,187,147,-3.24,-2.30,126.65,0.05,-0.13,1.01,-0.06,-0.49,-0.12,-6.93,-2.72,-3.84,,,0
427904892,0,207,208,131,203,207,187,152,-5.34,-2.95,127.67,0.05,-0.13,1.01,-0.43,-0.12,-0.06,-7.01,-2.77,-3.85,,,0
428004880,0,207,208,131,203,207,187,154,-3.24,-2.30,126.82,0.05,-0.13,1.01,-0.67,-0.43,-0.06,-7.10,-2.82,-3.85,,,0
428104892,0,208,207,132,203,208,186,152,-5.34,-2.95,126.65,0.05,-0.13,1.01,-0.12,0.06,-0.06,-7.19,-2.86,-3.85,,,0
428204892,0,207,207,131,203,207,188,148,-5.34,-2.95,132.60,0.05,-0.13,1.01,0.00,-0.18,-0.18,-7.23,-2.87,-3.85,,,0
428304880,0,206,206,130,202,205,185,152,-2.19,-1.89,130.90,0.05,-0.13,1.00,0.00,0.06,-0.12,-7.23,-2.89,-3.85,,,0
428404892,0,205,204,129,200,203,184,145,-2.19,-1.89,130.90,0.05,-0.13,1.01,0.49,0.37,-0.06,-7.21,-2.88,-3.85,,,0
428504892,0,203,203,128,199,203,183,155,-2.19,-1.89,127.67,0.05,-0.14,1.01,0.37,0.12,-0.12,-7.19,-2.87,-3.85,,,0
428604884,0,203,202,128,198,202,182,147,3.07,2.24,130.90,0.05,-0.13,1.01,0.31,0.31,-0.12,-7.17,-2.86,-3.85,,,0
428704880,0,202,202,128,197,203,182,155,-0.08,-0.37,131.58,0.05,-0.13,1.01,0.06,-0.06,-0.06,-7.19,-2.87,-3.85,,,0
428804880,0,202,202,127,198,201,182,155,-2.19,-1.89,127.33,0.05,-0.13,1.01,0.00,-0.06,-0.06,-7.23,-2.88,-3.85,,,0
428904884,0,202,202,128,197,202,182,148,2.02,1.82,127.16,0.05,-0.13,1.01,-0.12,0.00,-0.12,-7.28,-2.90,-3.85,,,0
429004892,0,203,205,129,199,203,183,152,-2.19,-1.89,127.67,0.05,-0.13,1.01,0.00,0.06,-0.06,-7.32,-2.92,-3.85,,,0
429104888,0,203,204,130,199,203,183,145,-2.19,-1.89,127.33,0.05,-0.14,1.01,0.06,0.12,0.06,-7.35,-2.92,-3.85,,,0
429204888,0,203,203,129,200,203,183,151,-0.08,-0.37,127.33,0.05,-0.14,1.01,-0.06,0.00,0.00,-7.37,-2.93,-3.85,,,0
429304896,0,203,203,129,199,203,183,151,-0.08,-0.37,132.09,0.05,-0.14,1.01,0.06,0.24,-0.12,-7.39,-2.93,-3.85,,,0
429404892,0,203,203,129,199,203,183,143,-2.19,-1.89,128.01,0.05,-0.14,1.01,-0.06,-0.12,-0.06,-7.44,-2.94,-3.85,,,0
429504888,0,203,204,129,199,203,183,159,-0.08,-0.37,127.84,0.05,-0.14,1.00,-0.73,0.18,-0.24,-7.49,-2.95,-3.85,,,0
429604892,0,203,203,129,198,203,183,152,3.07,2.24,124.27,0.05,-0.13,1.01,-1.10,-0.43,-0.31,-7.56,-2.94,-3.85,,,0
429704892,0,203,203,130,199,203,183,151,2.02,1.82,124.27,0.06,-0.14,1.01,-1.16,0.18,-0.12,-7.64,-3.00,-3.85,,,0
429804880,0,204,204,129,199,203,184,152,5.18,2.91,124.44,0.05,-0.14,1.01,-0.67,0.12,0.00,-7.70,-2.98,-3.85,,,0
429904888,0,204,204,130,199,204,184,153,2.02,1.82,128.52,0.06,-0.14,1.01,0.12,0.18,-0.06,-7.73,-2.99,-3.85,,,0
430004888,0,204,203,129,199,203,184,147,3.07,2.24,126.99,0.06,-0.14,1.01,0.24,-0.18,-0.18,-7.71,-3.00,-3.85,,,0
