time_us,gps_sec,raw1,raw2,raw3,raw4,raw5,raw6,vl53_mm,pitot_pa,air_speed,ultrason_mm,accX,accY,accZ,gyroX,gyroY,gyroZ,roll,pitch,yaw,lat,lon,gps_valid
1293784064,0,204,204,147,200,204,283,55,353.41,24.02,34.00,-0.11,-0.13,1.02,0.06,-0.31,-5.98,-7.60,4.87,-102.52,,,0
1293947916,0,205,204,147,200,204,284,68,351.31,23.95,33.49,-0.11,-0.13,1.01,-0.12,-0.49,-5.62,-7.64,4.83,-103.43,,,0
1294047924,0,205,204,148,200,204,283,63,354.46,24.06,36.04,-0.11,-0.13,1.02,0.18,-0.24,-5.25,-7.65,4.84,-103.97,,,0
1294147928,0,204,204,147,201,204,283,67,348.15,23.84,37.06,-0.11,-0.13,1.02,0.49,0.06,-4.88,-7.61,4.88,-104.48,,,0
1294247920,0,204,204,148,201,204,283,58,353.41,24.02,36.55,-0.11,-0.13,1.02,0.37,0.31,-4.70,-7.56,4.93,-104.96,,,0
1294347920,0,204,205,147,200,204,284,64,353.41,24.02,35.36,-0.11,-0.12,1.02,0.00,0.31,-4.46,-7.53,5.00,-105.42,,,0
1294447916,0,205,205,148,200,204,284,57,353.41,24.02,37.06,-0.11,-0.12,1.02,-0.31,0.18,-4.27,-7.52,5.06,-105.86,,,0
1294547932,0,205,205,147,200,204,284,60,351.31,23.95,32.81,-0.11,-0.12,1.02,-0.06,0.06,-3.97,-7.53,5.11,-106.28,,,0
1294647924,0,205,204,148,200,205,284,59,351.31,23.95,31.45,-0.11,-0.13,1.02,0.24,0.00,-3.66,-7.50,5.15,-106.66,,,0
1294747932,0,205,205,148,200,204,284,66,353.41,24.02,36.55,-0.11,-0.13,1.01,0.43,-0.24,-3.42,-7.47,5.18,-107.01,,,0
1294847932,0,205,205,147,200,204,284,72,351.31,23.95,34.85,-0.11,-0.13,1.02,0.06,-0.67,-3.11,-7.45,5.17,-107.33,,,0
1294947928,0,205,205,147,200,204,284,64,356.57,24.13,34.00,-0.11,-0.13,1.02,-0.31,-0.49,-2.81,-7.49,5.15,-107.61,,,0
1295047928,0,205,205,147,200,204,284,62,354.46,24.06,34.68,-0.11,-0.13,1.02,-0.12,0.43,-2.56,-7.51,5.20,-107.87,,,0
1295147920,0,205,205,147,200,204,284,56,357.62,24.16,36.21,-0.11,-0.13,1.02,0.31,1.22,-2.32,-7.49,5.33,-108.13,,,0
1295247920,0,205,205,147,200,204,284,71,353.41,24.02,34.85,-0.11,-0.12,1.02,0.24,0.55,-2.14,-7.43,5.45,-108.36,,,0
1295347916,0,205,205,148,200,204,284,71,351.31,23.95,30.77,-0.11,-0.12,1.02,0.12,-1.10,-1.77,-7.39,5.43,-108.54,,,0
1295447924,0,205,205,148,200,204,284,60,349.20,23.88,35.36,-0.11,-0.13,1.01,0.12,-1.95,-1.40,-7.36,5.31,-108.68,,,0
1295547928,0,205,205,148,200,204,284,69,354.46,24.06,35.19,-0.11,-0.13,1.02,0.24,-1.10,-1.16,-7.34,5.22,-108.77,,,0
1295647924,0,205,205,148,201,204,284,64,351.31,23.95,34.68,-0.11,-0.13,1.02,0.24,1.10,-0.92,-7.31,5.27,-108.87,,,0
1295747928,0,205,206,148,201,205,285,59,354.46,24.06,34.51,-0.11,-0.13,1.02,0.24,2.01,-0.73,-7.27,5.48,-108.98,,,0
1295847916,0,205,205,148,201,205,285,77,356.57,24.13,35.19,-0.11,-0.13,1.02,0.06,1.46,-0.43,-7.24,5.70,-109.06,,,0
1295947916,0,205,205,147,200,204,285,56,354.46,24.06,36.21,-0.11,-0.13,1.02,0.00,0.06,-0.18,-7.23,5.80,-109.11,,,0
1296047920,0,205,205,147,201,205,285,79,351.31,23.95,32.30,-0.11,-0.13,1.02,0.00,-1.10,0.00,-7.22,5.77,-109.11,,,0
1296147916,0,205,205,148,202,205,285,59,353.41,24.02,33.49,-0.11,-0.13,1.02,0.31,-1.28,0.24,-7.21,5.67,-109.08,,,0
1296247916,0,227,226,162,222,226,314,72,356.57,24.13,37.74,-0.11,-0.13,1.02,0.37,-0.67,0.43,-7.17,5.61,-109.04,,,0
1296347924,0,224,224,161,219,223,311,51,356.57,24.13,35.87,-0.11,-0.13,1.02,-0.06,-0.06,0.67,-7.15,5.62,-108.98,,,0
1296447916,0,223,223,160,218,222,309,63,357.62,24.16,36.38,-0.11,-0.13,1.02,-0.43,0.24,1.04,-7.16,5.67,-108.91,,,0
1296547920,0,222,222,159,218,221,307,62,356.57,24.13,36.38,-0.11,-0.12,1.02,-0.43,0.06,1.28,-7.18,5.72,-108.79,,,0
1296647924,0,222,221,160,217,221,306,55,354.46,24.06,35.36,-0.11,-0.13,1.02,-0.06,-0.43,1.59,-7.17,5.75,-108.65,,,0
1296747916,0,221,221,159,216,220,306,61,361.83,24.31,36.89,-0.11,-0.13,1.02,0.31,-0.37,1.83,-7.13,5.75,-108.48,,,0
1296847924,0,222,221,159,216,220,306,61,356.57,24.13,37.74,-0.11,-0.13,1.01,0.37,0.31,2.01,-7.07,5.78,-108.29,,,0
1296947924,0,221,220,162,216,220,306,76,359.72,24.23,32.47,-0.11,-0.13,1.01,0.12,1.10,2.08,-7.03,5.88,-108.09,,,0
1297047924,0,221,220,165,215,219,305,64,356.57,24.13,37.06,-0.11,-0.13,1.02,-0.12,1.22,2.26,-7.04,6.03,-107.90,,,0
1297147928,0,220,221,167,216,218,306,58,354.46,24.06,36.38,-0.10,-0.10,1.03,0.00,0.24,2.14,-7.10,6.13,-107.67,,,0
1297247924,0,220,220,169,216,218,306,70,356.57,24.13,34.85,-0.10,-0.11,1.03,-0.24,-1.71,2.75,-7.07,6.08,-107.41,,,0
1297347928,0,220,220,167,217,219,306,54,359.72,24.23,37.06,-0.11,-0.13,1.03,0.55,-2.93,2.93,-6.99,5.86,-107.10,,,0
1297447924,0,219,220,164,216,219,306,70,359.72,24.23,34.00,-0.11,-0.12,1.01,0.98,-1.53,2.99,-6.88,5.64,-106.77,,,0
1297547920,0,219,221,162,217,219,306,62,357.62,24.16,37.23,-0.11,-0.13,1.00,0.73,1.53,3.54,-6.79,5.68,-106.45,,,0
1297647924,0,218,221,161,216,220,307,68,356.57,24.13,37.06,-0.11,-0.13,1.01,-0.06,3.17,3.91,-6.78,5.98,-106.11,,,0
1297747920,0,218,221,160,216,220,307,74,357.62,24.16,35.87,-0.11,-0.13,1.02,-0.85,2.32,4.33,-6.84,6.31,-105.74,,,0
1297847924,0,218,221,163,216,220,306,59,356.57,24.13,34.85,-0.11,-0.13,1.03,-0.85,0.12,4.76,-6.92,6.45,-105.31,,,0
1297947920,0,217,220,168,216,219,306,54,359.72,24.23,32.81,-0.11,-0.13,1.03,-0.06,-1.89,5.31,-6.92,6.37,-104.79,,,0
1298047924,0,217,219,171,216,219,307,66,356.57,24.13,37.57,-0.10,-0.12,1.02,0.61,-2.38,5.74,-6.84,6.18,-104.21,,,0
1298147920,0,217,220,175,217,219,306,70,362.88,24.34,33.32,-0.10,-0.12,1.02,1.16,-2.20,5.68,-6.73,5.97,-103.60,,,0
1298247924,0,216,220,177,217,219,306,65,362.88,24.34,34.00,-0.09,-0.13,1.01,1.77,-0.92,5.68,-6.59,5.84,-103.00,,,0
1298347928,0,215,219,178,215,220,306,68,361.83,24.31,37.06,-0.09,-0.13,1.00,1.46,0.67,5.43,-6.43,5.83,-102.44,,,0
1298447916,0,217,220,179,216,220,306,68,361.83,24.31,34.17,-0.09,-0.12,1.01,-0.55,-0.24,4.70,-6.39,5.84,-101.94,,,0
1298547920,0,215,219,179,217,220,305,53,357.62,24.16,30.43,-0.09,-0.13,1.03,-3.17,-1.77,4.15,-6.60,5.68,-101.49,,,0
1298647916,0,216,219,179,217,220,305,63,359.72,24.23,36.38,-0.09,-0.12,1.04,-2.44,-1.28,3.42,-6.88,5.51,-101.09,,,0
1298747928,0,215,219,179,217,221,307,62,362.88,24.34,37.23,-0.09,-0.13,1.02,0.06,-0.31,2.69,-6.97,5.42,-100.77,,,0
