time_us,gps_sec,raw1,raw2,raw3,raw4,raw5,raw6,vl53_mm,pitot_pa,air_speed,ultrason_mm,accX,accY,accZ,gyroX,gyroY,gyroZ,roll,pitch,yaw,lat,lon,gps_valid
1496719368,0,219,221,151,207,221,190,150,-147.37,-15.51,nan,-0.26,-0.08,1.06,5.49,-0.37,-1.65,-7.69,14.72,-143.28,,,0
1496889564,0,219,220,151,206,221,190,154,-135.80,-14.89,nan,-0.24,-0.11,0.89,1.04,-10.74,-1.59,-7.73,14.97,-143.53,,,0
1496989568,0,219,220,151,206,221,190,150,-146.32,-15.46,nan,-0.29,-0.14,1.05,2.20,-9.77,-3.11,-7.62,13.82,-143.64,,,0
1497089572,0,218,220,151,207,221,190,152,-141.06,-15.18,nan,-0.24,-0.13,0.99,1.46,-1.28,-2.44,-7.49,13.28,-143.85,,,0
1497189564,0,219,221,153,206,221,190,149,-142.11,-15.23,nan,-0.23,-0.14,1.05,0.12,4.94,-1.46,-7.50,13.30,-144.08,,,0
1497289572,0,219,222,152,207,221,191,154,-142.11,-15.23,nan,-0.24,-0.13,0.99,-0.12,7.26,-0.67,-7.58,13.90,-144.26,,,0
1497389560,0,220,222,152,207,223,191,152,-144.22,-15.34,nan,-0.29,-0.17,1.08,-1.04,5.55,-3.30,-7.95,14.60,-144.56,,,0
1497489560,0,220,222,153,207,223,191,160,-142.11,-15.23,nan,-0.24,-0.12,0.97,-1.53,4.09,-4.33,-8.15,15.10,-145.06,,,0
1497589568,0,220,223,153,208,222,191,157,-146.32,-15.46,nan,-0.30,-0.15,1.07,-1.95,0.73,-5.86,-8.44,15.30,-145.60,,,0
1497689568,0,220,222,152,208,222,191,157,-146.32,-15.46,nan,-0.26,-0.15,0.98,2.81,4.39,-1.53,-8.54,15.45,-146.03,,,0
1497789564,0,220,222,152,207,222,191,155,-150.53,-15.68,nan,-0.32,-0.14,1.02,2.50,5.80,0.55,-8.36,15.96,-146.16,,,0
1497889564,0,219,222,152,207,222,191,151,-146.32,-15.46,nan,-0.31,-0.13,1.01,3.11,-2.38,1.65,-8.01,16.17,-146.10,,,0
1497989572,0,220,222,152,208,222,192,149,-147.37,-15.51,nan,-0.26,-0.11,0.97,6.47,-3.48,6.10,-7.51,15.89,-145.68,,,0
1498089564,0,220,222,152,207,222,191,147,-147.37,-15.51,nan,-0.33,-0.07,0.98,12.15,-0.12,9.03,-6.31,15.76,-144.83,,,0
1498189560,0,220,222,152,207,222,191,144,-146.32,-15.46,nan,-0.32,-0.09,0.99,13.92,-3.42,3.85,-4.68,16.02,-144.12,,,0
1498289568,0,220,223,151,207,222,191,139,-150.53,-15.68,nan,-0.25,-0.06,1.01,9.28,-3.97,1.34,-3.43,15.77,-143.87,,,0
1498389572,0,219,221,151,208,222,191,142,-150.53,-15.68,nan,-0.25,-0.05,0.93,0.18,1.59,-1.77,-2.92,15.52,-143.83,,,0
1498489568,0,219,221,152,207,222,191,143,-154.74,-15.89,nan,-0.29,-0.04,1.01,-4.94,1.10,-6.53,-3.15,15.73,-144.29,,,0
1498589572,0,220,221,152,207,222,190,145,-150.53,-15.68,nan,-0.25,-0.08,1.00,-6.16,0.37,-6.35,-3.89,15.80,-144.98,,,0
1498689564,0,219,221,151,207,221,190,147,-152.63,-15.79,nan,-0.34,-0.09,1.12,-9.77,-0.85,-8.54,-4.96,15.64,-145.78,,,0
1498789564,0,219,221,152,206,221,190,148,-161.05,-16.22,nan,-0.26,-0.11,0.98,-15.93,0.31,-8.48,-6.53,15.57,-146.67,,,0
1498889560,0,220,221,152,207,222,191,152,-155.79,-15.95,nan,-0.32,-0.16,0.98,-19.65,2.56,-10.62,-8.55,15.67,-147.67,,,0
1498989576,0,219,221,152,208,222,191,154,-155.79,-15.95,nan,-0.28,-0.18,0.99,-0.24,6.53,-4.58,-9.67,16.17,-148.60,,,0
1499089564,0,219,221,152,207,222,191,153,-155.79,-15.95,nan,-0.33,-0.18,0.97,0.43,7.02,-5.98,-9.77,16.96,-149.19,,,0
1499189564,0,219,222,152,207,222,190,159,-152.63,-15.79,nan,-0.30,-0.15,0.99,-2.56,-4.46,-7.39,-9.94,16.95,-149.94,,,0
1499289564,0,219,221,152,207,222,190,152,-154.74,-15.89,nan,-0.30,-0.16,1.01,0.73,-9.22,-3.91,-10.15,16.23,-150.40,,,0
1499389580,0,219,221,151,207,223,190,154,-154.74,-15.89,nan,-0.24,-0.16,0.96,2.81,-10.07,-2.38,-9.92,15.17,-150.50,,,0
1499489572,0,219,222,151,207,222,190,156,-152.63,-15.79,nan,-0.30,-0.14,0.98,3.48,-8.18,-2.62,-9.49,14.20,-150.58,,,0
1499589560,0,219,221,151,207,222,190,159,-154.74,-15.89,nan,-0.24,-0.16,1.04,1.16,-9.58,-3.72,-9.22,13.39,-150.77,,,0
1499689564,0,219,221,151,207,222,190,157,-161.05,-16.22,nan,-0.24,-0.16,1.00,1.95,-1.34,-1.10,-9.03,12.62,-150.97,,,0
1499789564,0,219,221,151,208,222,190,155,-152.63,-15.79,nan,-0.24,-0.17,1.01,-1.46,4.46,0.37,-9.03,13.00,-151.04,,,0
1499889560,0,219,221,151,206,222,190,154,-152.63,-15.79,nan,-0.22,-0.17,1.00,-0.92,-1.65,-0.24,-9.23,13.17,-151.04,,,0
1499989564,0,218,221,151,207,223,190,152,-152.63,-15.79,nan,-0.25,-0.16,1.02,-0.24,0.37,0.31,-9.34,13.06,-151.03,,,0
1500089564,0,219,222,152,207,222,190,152,-155.79,-15.95,nan,-0.24,-0.16,0.99,0.55,0.55,-0.43,-9.31,13.48,-151.06,,,0
1500189568,0,219,221,152,207,222,190,155,-154.74,-15.89,nan,-0.25,-0.16,0.99,1.77,-8.24,-1.59,-9.21,13.20,-151.09,,,0
1500289560,0,219,221,151,207,223,191,155,-155.79,-15.95,nan,-0.25,-0.16,1.01,0.98,-9.16,-0.98,-9.05,12.40,-151.09,,,0
1500389572,0,219,221,151,207,222,190,157,-160.00,-16.16,nan,-0.20,-0.16,1.02,1.22,-9.03,-1.10,-8.96,11.55,-151.06,,,0
1500489576,0,219,221,151,207,223,190,159,-154.74,-15.89,nan,-0.21,-0.15,1.00,0.79,-5.49,0.00,-8.85,10.79,-150.99,,,0
1500589568,0,219,221,151,206,222,190,157,-147.37,-15.51,nan,-0.20,-0.15,1.04,0.49,2.08,1.04,-8.77,10.77,-150.90,,,0
1500689572,0,219,221,151,207,222,190,152,-157.89,-16.06,nan,-0.21,-0.16,1.03,0.18,2.14,0.55,-8.78,11.00,-150.86,,,0
1500789564,0,219,221,151,206,223,191,154,-152.63,-15.79,nan,-0.20,-0.16,1.03,-0.98,-1.40,0.37,-8.81,11.05,-150.83,,,0
1500889572,0,219,221,151,207,223,190,158,-154.74,-15.89,nan,-0.20,-0.15,1.01,-0.37,-5.68,-0.18,-8.81,10.66,-150.79,,,0
1500989568,0,218,221,151,206,223,190,153,-152.63,-15.79,nan,-0.20,-0.15,0.98,0.67,-7.02,-0.92,-8.76,10.09,-150.75,,,0
1501089560,0,219,221,152,206,223,190,155,-155.79,-15.95,nan,-0.19,-0.15,1.01,0.79,-10.13,-1.04,-8.67,9.26,-150.70,,,0
1501189564,0,219,223,152,207,223,191,158,-155.79,-15.95,nan,-0.16,-0.16,1.02,1.04,-8.30,-0.24,-8.57,8.37,-150.63,,,0
1501289564,0,219,222,152,207,223,192,154,-157.89,-16.06,nan,-0.15,-0.15,1.04,1.46,-3.60,0.55,-8.50,7.90,-150.55,,,0
1501389560,0,218,222,152,208,224,191,155,-160.00,-16.16,nan,-0.16,-0.15,1.04,-0.49,1.83,1.28,-8.44,7.89,-150.44,,,0
1501489572,0,219,222,152,208,224,192,157,-161.05,-16.22,nan,-0.15,-0.16,1.00,0.49,-1.59,0.12,-8.47,8.03,-150.35,,,0
1501589560,0,220,222,152,208,224,192,151,-161.05,-16.22,nan,-0.17,-0.16,1.01,1.95,-0.43,0.98,-8.34,8.02,-150.25,,,0
1501689568,0,219,223,152,208,224,191,153,-155.79,-15.95,nan,-0.12,-0.15,0.99,2.44,-2.08,1.10,-8.13,7.75,-150.10,,,0
