time_us,gps_sec,raw1,raw2,raw3,raw4,raw5,raw6,vl53_mm,pitot_pa,air_speed,ultrason_mm,accX,accY,accZ,gyroX,gyroY,gyroZ,roll,pitch,yaw,lat,lon,gps_valid
985061388,0,220,220,158,215,218,278,152,2.02,1.82,163.88,0.15,-0.05,0.98,0.06,0.00,0.06,-2.65,-8.57,-11.93,,,0
985213412,0,244,244,166,224,226,285,146,3.07,2.24,165.41,0.15,-0.05,0.98,-0.18,0.00,0.00,-2.65,-8.56,-11.93,,,0
985313420,0,267,268,172,227,228,291,156,6.23,3.19,168.81,0.15,-0.05,0.98,-0.12,0.00,0.00,-2.68,-8.57,-11.93,,,0
985413424,0,260,261,174,229,234,294,161,-0.08,-0.37,161.84,0.15,-0.05,0.98,0.31,0.06,0.00,-2.66,-8.57,-11.93,,,0
985513416,0,241,241,179,235,239,299,153,-0.08,-0.37,159.80,0.15,-0.04,0.98,0.18,0.00,0.00,-2.64,-8.56,-11.93,,,0
985613420,0,224,224,179,236,239,300,150,3.07,2.24,159.97,0.15,-0.04,0.99,-0.24,0.00,-0.06,-2.64,-8.56,-11.93,,,0
985713424,0,229,231,178,234,238,298,151,-0.08,-0.37,170.85,0.15,-0.05,0.98,-0.06,-0.06,0.00,-2.66,-8.56,-11.93,,,0
985813412,0,249,249,181,237,241,300,145,-2.19,-1.89,163.37,0.15,-0.05,0.99,0.24,0.12,0.00,-2.65,-8.56,-11.93,,,0
985913420,0,244,245,177,234,237,297,149,5.18,2.91,176.63,0.15,-0.05,0.98,0.00,0.00,0.00,-2.64,-8.56,-11.93,,,0
986013412,0,228,230,180,237,240,300,148,5.18,2.91,161.67,0.15,-0.05,0.98,-0.06,0.00,0.00,-2.65,-8.56,-11.93,,,0
986113428,0,215,215,179,235,237,298,151,5.18,2.91,158.27,0.15,-0.05,0.98,0.06,0.00,0.00,-2.65,-8.56,-11.93,,,0
986213420,0,230,230,179,236,241,300,149,5.18,2.91,170.51,0.15,-0.04,0.98,-0.12,0.00,0.00,-2.64,-8.55,-11.93,,,0
986313420,0,244,244,179,235,239,299,144,8.33,3.69,163.03,0.15,-0.04,0.98,-0.12,0.00,0.00,-2.65,-8.55,-11.93,,,0
986413424,0,235,236,179,235,238,299,149,-0.08,-0.37,160.99,0.15,-0.05,0.98,0.12,0.00,-0.06,-2.65,-8.55,-11.93,,,0
986513420,0,235,235,175,232,236,295,147,2.02,1.82,167.79,0.15,-0.04,0.98,0.06,0.00,0.06,-2.64,-8.55,-11.93,,,0
986613424,0,230,231,172,229,232,292,148,6.23,3.19,169.66,0.15,-0.04,0.98,-0.24,0.06,-0.06,-2.64,-8.55,-11.93,,,0
986713412,0,227,227,167,224,228,288,150,2.02,1.82,176.46,0.15,-0.05,0.98,0.00,0.12,0.12,-2.64,-8.55,-11.93,,,0
986813416,0,223,223,162,219,223,283,152,5.18,2.91,181.22,0.15,-0.04,0.98,-0.12,0.06,-0.06,-2.64,-8.55,-11.93,,,0
986913412,0,221,221,160,217,221,281,146,3.07,2.24,172.21,0.15,-0.05,0.98,-0.12,-0.06,0.06,-2.65,-8.55,-11.93,,,0
987013420,0,219,219,158,215,219,279,154,-0.08,-0.37,181.22,0.15,-0.05,0.98,0.06,-0.06,0.00,-2.65,-8.55,-11.93,,,0
987113416,0,219,218,157,214,218,278,148,2.02,1.82,168.13,0.15,-0.05,0.98,0.06,0.00,0.00,-2.65,-8.55,-11.93,,,0
987213412,0,218,218,156,213,218,277,149,-5.34,-2.95,168.13,0.15,-0.05,0.98,-0.06,0.00,0.00,-2.65,-8.55,-11.93,,,0
987313420,0,218,218,156,213,217,277,150,-0.08,-0.37,167.96,0.15,-0.05,0.98,-0.06,0.00,0.00,-2.66,-8.55,-11.93,,,0
987413412,0,217,217,156,212,217,277,148,3.07,2.24,163.88,0.15,-0.05,0.98,0.12,0.00,0.00,-2.65,-8.56,-11.93,,,0
987513412,0,218,217,156,212,216,277,148,-0.08,-0.37,168.13,0.15,-0.05,0.98,-0.06,0.00,0.00,-2.65,-8.56,-11.93,,,0
987613416,0,217,217,156,212,216,276,151,2.02,1.82,176.80,0.15,-0.05,0.98,0.00,0.06,0.00,-2.65,-8.56,-11.93,,,0
987713412,0,217,218,156,212,216,276,147,2.02,1.82,164.90,0.15,-0.05,0.98,0.18,0.00,0.00,-2.64,-8.56,-11.93,,,0
987813412,0,217,217,156,211,216,276,152,6.23,3.19,172.38,0.15,-0.05,0.98,0.00,0.00,0.00,-2.63,-8.56,-11.93,,,0
987913424,0,218,216,155,212,216,276,151,-3.24,-2.30,185.64,0.15,-0.05,0.98,-0.06,0.00,0.00,-2.64,-8.56,-11.93,,,0
988013412,0,217,218,156,211,216,276,149,3.07,2.24,180.20,0.15,-0.05,0.98,0.00,0.00,0.00,-2.65,-8.56,-11.93,,,0
988113424,0,217,217,156,212,216,277,150,-2.19,-1.89,172.38,0.15,-0.05,0.98,0.06,0.00,0.00,-2.64,-8.56,-11.93,,,0
988213424,0,217,217,156,211,216,276,152,-0.08,-0.37,181.22,0.15,-0.04,0.98,-0.12,0.00,0.00,-2.65,-8.56,-11.93,,,0
988313412,0,217,217,156,212,216,277,152,-5.34,-2.95,184.45,0.15,-0.05,0.98,-0.12,0.00,0.00,-2.65,-8.56,-11.93,,,0
988413416,0,218,217,156,212,216,277,145,-0.08,-0.37,168.13,0.15,-0.05,0.98,0.12,0.06,0.00,-2.65,-8.56,-11.93,,,0
988513416,0,217,217,156,213,217,277,151,2.02,1.82,172.21,0.15,-0.04,0.98,0.00,0.06,0.00,-2.64,-8.56,-11.93,,,0
988613420,0,217,217,156,213,216,277,149,2.02,1.82,168.47,0.15,-0.05,0.98,-0.18,0.06,-0.06,-2.66,-8.56,-11.93,,,0
988713424,0,217,218,156,213,216,277,151,2.02,1.82,168.13,0.15,-0.05,0.98,0.06,0.00,0.00,-2.66,-8.56,-11.93,,,0
988813416,0,218,217,156,213,216,276,157,-0.08,-0.37,172.21,0.15,-0.04,0.98,0.18,0.00,0.00,-2.65,-8.56,-11.93,,,0
988913424,0,218,217,156,212,216,277,150,2.02,1.82,172.21,0.15,-0.04,0.98,-0.24,0.00,0.00,-2.65,-8.56,-11.93,,,0
989013412,0,217,217,157,213,216,277,148,-0.08,-0.37,172.21,0.15,-0.05,0.98,-0.12,0.00,0.00,-2.68,-8.56,-11.93,,,0
989113420,0,217,218,156,212,216,278,144,-0.08,-0.37,168.13,0.15,-0.04,0.98,0.24,0.06,0.00,-2.67,-8.56,-11.93,,,0
989213416,0,217,217,156,213,217,277,154,-5.34,-2.95,168.13,0.15,-0.05,0.98,-0.12,0.06,0.00,-2.65,-8.56,-11.93,,,0
989313416,0,218,219,156,213,216,277,152,-2.19,-1.89,171.36,0.15,-0.04,0.98,-0.12,-0.06,0.00,-2.66,-8.55,-11.93,,,0
989413412,0,217,217,156,212,216,276,149,-0.08,-0.37,165.41,0.15,-0.05,0.98,0.06,0.12,0.00,-2.68,-8.56,-11.93,,,0
989513420,0,217,217,157,213,216,276,158,-3.24,-2.30,166.26,0.15,-0.04,0.98,-0.06,0.06,-0.06,-2.66,-8.56,-11.93,,,0
989613420,0,217,217,156,213,217,276,153,3.07,2.24,163.54,0.15,-0.05,0.98,-0.06,0.00,0.00,-2.66,-8.56,-11.93,,,0
989713420,0,218,217,156,213,217,277,152,-2.19,-1.89,166.94,0.15,-0.05,0.98,-0.06,0.00,0.00,-2.67,-8.56,-11.93,,,0
989813416,0,217,217,156,214,217,276,151,-2.19,-1.89,170.85,0.15,-0.04,0.98,0.00,0.00,0.00,-2.66,-8.56,-11.93,,,0
989913432,0,218,217,157,213,217,276,147,5.18,2.91,164.22,0.15,-0.04,0.98,0.12,0.00,0.00,-2.66,-8.56,-11.93,,,0
990013424,0,217,218,157,213,217,277,149,-0.08,-0.37,159.12,0.15,-0.05,0.98,-0.18,0.00,0.00,-2.66,-8.56,-11.93,,,0
