time_us,gps_sec,raw1,raw2,raw3,raw4,raw5,raw6,vl53_mm,pitot_pa,air_speed,ultrason_mm,accX,accY,accZ,gyroX,gyroY,gyroZ,roll,pitch,yaw,lat,lon,gps_valid
364689416,0,205,205,127,200,204,184,155,2.02,1.82,145.35,0.11,-0.14,1.00,-1.77,-5.68,-0.31,-7.95,-5.98,-6.47,,,0
364817936,0,205,205,126,200,205,184,150,-0.08,-0.37,155.89,0.13,-0.15,0.98,-0.61,-1.16,-0.49,-8.14,-6.62,-6.47,,,0
364917932,0,205,205,128,200,204,183,152,8.33,3.69,147.56,0.11,-0.15,1.00,0.79,1.10,-0.49,-8.14,-6.46,-6.47,,,0
365017928,0,205,205,128,201,204,184,154,-0.08,-0.37,152.83,0.12,-0.14,0.99,0.85,-2.26,-0.12,-8.07,-6.56,-6.47,,,0
365117932,0,205,205,128,201,205,183,157,5.18,2.91,150.11,0.11,-0.14,1.00,0.00,1.10,0.37,-8.04,-6.54,-6.47,,,0
365217932,0,205,205,127,201,205,184,156,-0.08,-0.37,156.06,0.12,-0.14,0.99,-0.43,-0.85,0.06,-8.10,-6.59,-6.47,,,0
365317928,0,205,205,128,201,205,184,155,2.02,1.82,155.21,0.11,-0.14,1.00,0.18,-0.12,-0.43,-8.12,-6.54,-6.47,,,0
365417940,0,205,205,127,201,205,184,156,3.07,2.24,160.65,0.12,-0.14,0.99,0.61,0.85,-0.24,-8.09,-6.59,-6.47,,,0
365517928,0,205,203,128,201,205,184,157,2.02,1.82,157.25,0.11,-0.14,1.00,0.06,0.00,-0.18,-8.04,-6.51,-6.47,,,0
365617936,0,206,205,127,201,205,184,156,2.02,1.82,161.50,0.12,-0.14,0.99,-0.49,-0.67,-0.24,-8.07,-6.58,-6.47,,,0
365717940,0,205,205,127,201,205,184,158,2.02,1.82,161.50,0.11,-0.14,1.00,-0.12,0.31,-0.43,-8.10,-6.56,-6.47,,,0
365817936,0,205,205,127,201,205,185,153,5.18,2.91,157.42,0.12,-0.14,0.99,0.37,0.12,-0.85,-8.09,-6.57,-6.47,,,0
365917928,0,205,205,127,201,205,184,151,3.07,2.24,165.75,0.12,-0.14,1.00,0.12,0.31,-0.98,-8.05,-6.56,-6.47,,,0
366017928,0,206,205,129,201,205,184,153,2.02,1.82,157.25,0.12,-0.14,0.99,-0.06,1.04,-0.92,-8.04,-6.53,-6.56,,,0
366117936,0,206,205,128,200,205,184,156,6.23,3.19,206.55,0.11,-0.14,0.99,0.73,6.23,-0.73,-8.03,-6.27,-6.69,,,0
366217940,0,204,204,127,200,203,183,158,2.02,1.82,368.56,0.10,-0.14,1.00,2.69,8.97,-1.59,-7.88,-5.56,-6.88,,,0
366317932,0,204,204,126,199,203,183,157,-2.19,-1.89,453.90,0.08,-0.13,1.01,4.82,8.79,-2.44,-7.50,-4.66,-7.21,,,0
366417928,0,205,205,127,201,204,184,149,2.02,1.82,279.31,0.06,-0.12,1.00,6.10,5.37,-1.95,-6.92,-3.90,-7.54,,,0
366517928,0,204,204,126,199,203,183,148,2.02,1.82,269.79,0.06,-0.11,1.01,1.89,1.71,-0.24,-6.42,-3.49,-7.72,,,0
366617936,0,201,200,124,196,200,179,146,3.07,2.24,450.16,0.06,-0.11,1.00,-2.32,-1.53,0.37,-6.38,-3.43,-7.70,,,0
366717928,0,201,200,124,195,200,179,152,-2.19,-1.89,371.28,0.07,-0.12,1.00,-2.62,-1.71,0.49,-6.69,-3.64,-7.63,,,0
366817936,0,199,200,123,195,199,179,150,5.18,2.91,341.19,0.06,-0.12,1.01,-0.24,0.55,0.43,-6.82,-3.66,-7.58,,,0
366917936,0,200,199,123,195,199,179,145,-2.19,-1.89,274.04,0.06,-0.12,1.01,1.77,0.06,-0.06,-6.77,-3.64,-7.56,,,0
367017932,0,199,199,123,196,199,179,150,2.02,1.82,279.31,0.07,-0.11,1.00,0.24,1.46,-0.12,-6.58,-3.57,-7.58,,,0
367117940,0,200,200,124,195,199,179,154,-0.08,-0.37,147.05,0.06,-0.10,1.00,1.22,-0.31,-0.06,-6.47,-3.52,-7.60,,,0
367217936,0,199,199,124,194,199,178,151,5.18,2.91,274.04,0.06,-0.11,1.00,-0.98,0.00,-0.06,-6.47,-3.52,-7.59,,,0
367317928,0,200,199,123,195,198,179,151,2.02,1.82,275.06,0.06,-0.11,1.00,-0.61,-0.61,0.06,-6.56,-3.57,-7.59,,,0
367417940,0,199,199,124,195,199,178,151,2.02,1.82,278.12,0.06,-0.12,1.00,0.79,0.43,0.00,-6.57,-3.58,-7.59,,,0
367517936,0,200,199,124,195,199,178,149,3.07,2.24,282.37,0.06,-0.11,1.00,0.61,0.31,-0.12,-6.48,-3.52,-7.59,,,0
367617932,0,199,199,124,196,199,178,154,2.02,1.82,270.81,0.06,-0.11,1.00,-0.67,-0.24,0.00,-6.47,-3.53,-7.59,,,0
367717940,0,199,199,124,194,199,179,156,-2.19,-1.89,278.29,0.06,-0.12,1.01,-0.55,-0.43,0.00,-6.54,-3.55,-7.59,,,0
367817932,0,200,199,123,195,199,179,153,3.07,2.24,273.87,0.06,-0.12,1.01,0.18,0.24,0.00,-6.56,-3.58,-7.59,,,0
367917940,0,200,200,123,195,198,179,147,3.07,2.24,270.81,0.06,-0.11,1.00,0.43,0.24,-0.06,-6.51,-3.54,-7.59,,,0
368017932,0,199,199,124,195,199,179,151,-2.19,-1.89,273.19,0.06,-0.11,1.00,-0.31,-0.12,0.00,-6.50,-3.54,-7.59,,,0
368117928,0,199,199,123,195,199,179,147,2.02,1.82,274.21,0.06,-0.12,1.01,-0.43,-0.12,0.00,-6.54,-3.56,-7.59,,,0
368217940,0,199,199,123,195,199,179,149,2.02,1.82,259.93,0.06,-0.12,1.00,0.18,0.00,0.00,-6.56,-3.57,-7.59,,,0
368317944,0,199,199,123,195,199,179,140,3.07,2.24,261.80,0.06,-0.11,1.00,0.31,0.24,-0.06,-6.53,-3.55,-7.59,,,0
368417940,0,199,199,123,194,199,179,147,2.02,1.82,260.95,0.06,-0.11,1.00,-0.24,-0.06,0.00,-6.51,-3.54,-7.59,,,0
368517932,0,200,199,124,195,199,179,152,5.18,2.91,263.50,0.06,-0.12,1.00,-0.31,-0.12,0.00,-6.55,-3.56,-7.59,,,0
368617932,0,199,199,123,195,199,179,152,2.02,1.82,260.61,0.06,-0.12,1.01,0.06,0.06,0.00,-6.56,-3.57,-7.59,,,0
368717940,0,202,202,126,198,202,182,146,-2.19,-1.89,262.31,0.06,-0.12,1.00,0.18,0.12,0.00,-6.54,-3.55,-7.59,,,0
368817936,0,204,204,126,199,203,183,151,-0.08,-0.37,259.76,0.06,-0.11,1.00,-0.06,-0.06,0.00,-6.53,-3.55,-7.59,,,0
368917932,0,206,205,128,201,205,184,152,-2.19,-1.89,145.69,0.06,-0.12,1.00,-0.24,-0.12,0.00,-6.55,-3.56,-7.59,,,0
369017928,0,206,205,128,200,205,185,147,2.02,1.82,255.68,0.06,-0.12,1.00,0.12,0.06,0.00,-6.55,-3.57,-7.59,,,0
369117928,0,206,206,127,201,205,186,150,5.18,2.91,255.51,0.06,-0.11,1.00,0.18,0.12,-0.06,-6.53,-3.55,-7.59,,,0
369217928,0,206,206,128,201,205,185,143,2.02,1.82,267.75,0.06,-0.11,1.00,-0.06,0.00,0.00,-6.53,-3.55,-7.59,,,0
369317936,0,206,206,128,202,205,185,151,3.07,2.24,254.83,0.06,-0.11,1.00,-0.06,0.00,0.06,-6.53,-3.55,-7.59,,,0
369417928,0,206,206,128,201,205,186,151,8.33,3.69,255.51,0.06,-0.12,1.00,-0.06,0.00,0.00,-6.53,-3.55,-7.59,,,0
369517936,0,206,206,128,202,205,185,154,-2.19,-1.89,260.95,0.06,-0.12,1.00,-0.18,0.00,0.00,-6.55,-3.55,-7.59,,,0
369617936,0,206,206,127,201,206,185,149,-0.08,-0.37,263.67,0.06,-0.12,1.00,0.12,-0.12,0.06,-6.55,-3.55,-7.59,,,0
