time_us,gps_sec,raw1,raw2,raw3,raw4,raw5,raw6,vl53_mm,pitot_pa,air_speed,ultrason_mm,accX,accY,accZ,gyroX,gyroY,gyroZ,roll,pitch,yaw,lat,lon,gps_valid
123174920,0,213,212,139,230,211,192,157,-2.19,-1.89,134.30,0.04,-0.15,1.01,0.06,0.06,0.00,-8.52,-2.58,-10.12,,,0
123305444,0,213,214,137,248,210,191,148,2.02,1.82,139.23,0.05,-0.15,1.01,-0.12,0.12,0.00,-8.53,-2.57,-10.12,,,0
123405444,0,217,218,138,254,211,192,149,2.02,1.82,131.58,0.05,-0.15,1.01,-0.06,0.06,0.00,-8.54,-2.57,-10.12,,,0
123505444,0,218,219,142,241,214,195,157,2.02,1.82,136.17,0.05,-0.15,1.01,0.12,-0.06,-0.06,-8.54,-2.58,-10.12,,,0
123605448,0,215,216,139,228,212,193,172,5.18,2.91,132.26,0.05,-0.15,1.01,0.06,0.00,0.00,-8.53,-2.58,-10.12,,,0
123705444,0,211,211,135,217,208,189,154,5.18,2.91,123.93,0.04,-0.15,1.01,0.06,0.12,0.00,-8.53,-2.58,-10.12,,,0
123805452,0,208,209,134,210,204,187,159,-0.08,-0.37,126.65,0.05,-0.15,1.01,0.00,0.06,-0.06,-8.53,-2.57,-10.12,,,0
123905456,0,206,206,132,206,203,185,147,2.02,1.82,124.95,0.05,-0.15,1.01,0.06,0.06,-0.06,-8.53,-2.57,-10.12,,,0
124005452,0,204,204,130,202,204,183,159,2.02,1.82,132.26,0.05,-0.15,1.01,0.12,0.00,0.00,-8.52,-2.57,-10.12,,,0
124105444,0,203,203,129,200,204,182,164,5.18,2.91,131.92,0.05,-0.15,1.01,0.06,0.00,-0.06,-8.52,-2.57,-10.12,,,0
124205448,0,202,202,128,199,205,182,157,8.33,3.69,130.22,0.05,-0.15,1.01,-0.12,0.06,-0.06,-8.52,-2.57,-10.12,,,0
124305460,0,202,202,128,198,203,181,160,2.02,1.82,132.94,0.05,-0.15,1.01,0.00,0.00,0.00,-8.53,-2.57,-10.12,,,0
124405452,0,201,201,128,197,202,181,161,-3.24,-2.30,131.92,0.05,-0.15,1.01,0.12,0.06,0.00,-8.53,-2.57,-10.12,,,0
124505452,0,201,201,127,197,201,181,163,3.07,2.24,132.09,0.05,-0.15,1.01,0.06,0.06,0.00,-8.52,-2.57,-10.12,,,0
124605452,0,201,201,127,197,201,181,153,2.02,1.82,133.11,0.05,-0.15,1.01,-0.06,0.00,-0.06,-8.51,-2.57,-10.12,,,0
124705452,0,205,205,130,200,211,185,144,-2.19,-1.89,132.09,0.05,-0.15,1.01,-0.06,0.00,-0.06,-8.53,-2.57,-10.12,,,0
124805452,0,211,211,137,206,235,191,157,-7.45,-3.49,131.92,0.05,-0.15,1.01,0.00,0.00,0.00,-8.53,-2.57,-10.12,,,0
124905448,0,213,213,141,209,256,193,149,-3.24,-2.30,133.11,0.05,-0.15,1.01,0.12,0.06,-0.06,-8.53,-2.57,-10.12,,,0
125005448,0,210,210,136,206,265,191,158,-3.24,-2.30,131.92,0.05,-0.15,1.01,0.12,0.06,-0.06,-8.51,-2.57,-10.12,,,0
125105456,0,207,208,135,204,267,188,149,-2.19,-1.89,131.92,0.05,-0.15,1.01,-0.12,0.06,-0.06,-8.50,-2.57,-10.12,,,0
125205456,0,212,211,138,207,261,192,157,-7.45,-3.49,133.11,0.05,-0.15,1.01,-0.12,0.00,-0.06,-8.51,-2.57,-10.12,,,0
125305448,0,215,215,140,208,246,194,160,-2.19,-1.89,139.91,0.05,-0.15,1.01,-0.06,-0.06,-0.06,-8.53,-2.57,-10.12,,,0
125405456,0,214,214,140,209,227,193,163,-5.34,-2.95,139.91,0.05,-0.15,1.01,0.24,0.00,0.12,-8.53,-2.57,-10.12,,,0
125505444,0,216,215,143,212,199,195,164,-2.19,-1.89,137.19,0.05,-0.15,1.01,0.24,0.06,-0.12,-8.53,-2.57,-10.12,,,0
125605444,0,218,219,144,213,181,198,160,-7.45,-3.49,132.09,0.05,-0.15,1.01,-0.24,0.00,0.12,-8.52,-2.57,-10.12,,,0
125705452,0,216,215,141,211,173,195,151,-5.34,-2.95,131.92,0.05,-0.15,1.01,-0.31,0.06,-0.18,-8.53,-2.58,-10.12,,,0
125805448,0,216,216,142,211,188,195,148,-7.45,-3.49,133.11,0.05,-0.15,1.01,-0.24,-0.06,0.12,-8.54,-2.58,-10.12,,,0
125905448,0,214,214,139,209,195,194,150,-2.19,-1.89,131.92,0.04,-0.15,1.01,0.37,-0.37,0.12,-8.54,-2.57,-10.12,,,0
126005448,0,210,209,135,205,198,189,162,2.02,1.82,131.92,0.04,-0.15,1.01,0.55,-0.18,-0.06,-8.55,-2.57,-10.12,,,0
126105456,0,207,207,133,203,199,187,155,-0.08,-0.37,133.11,0.05,-0.15,1.01,-0.31,0.06,0.12,-8.53,-2.58,-10.12,,,0
126205452,0,205,205,131,200,200,184,155,3.07,2.24,132.09,0.05,-0.15,1.01,-0.18,0.06,-0.12,-8.54,-2.58,-10.12,,,0
126305444,0,204,204,130,199,200,183,168,-2.19,-1.89,132.09,0.05,-0.15,1.01,-0.24,-0.06,0.00,-8.54,-2.58,-10.12,,,0
126405456,0,203,202,129,198,200,182,154,2.02,1.82,133.11,0.05,-0.15,1.01,-0.18,-0.12,0.00,-8.53,-2.58,-10.12,,,0
126505452,0,202,202,128,197,200,181,156,2.02,1.82,132.09,0.05,-0.15,1.01,0.00,0.06,-0.06,-8.53,-2.58,-10.12,,,0
126605456,0,201,202,127,197,200,181,154,6.23,3.19,132.09,0.05,-0.15,1.01,-0.12,0.12,-0.06,-8.54,-2.58,-10.12,,,0
126705444,0,202,202,128,196,201,181,164,2.02,1.82,132.09,0.05,-0.15,1.01,-0.06,0.00,0.00,-8.54,-2.58,-10.12,,,0
126805444,0,202,201,128,195,201,181,152,2.02,1.82,132.09,0.05,-0.15,1.01,0.24,0.00,-0.06,-8.54,-2.58,-10.12,,,0
126905456,0,201,201,127,194,201,182,151,3.07,2.24,128.52,0.05,-0.15,1.01,0.18,0.00,0.00,-8.52,-2.57,-10.12,,,0
127005444,0,202,202,128,195,201,182,157,2.02,1.82,126.82,0.05,-0.15,1.01,0.00,0.06,0.00,-8.51,-2.57,-10.12,,,0
127105456,0,202,201,127,196,201,182,153,3.07,2.24,126.65,0.05,-0.15,1.01,0.00,0.06,-0.06,-8.52,-2.58,-10.12,,,0
127205452,0,202,201,127,196,201,181,160,3.07,2.24,126.65,0.05,-0.15,1.01,-0.06,0.00,0.00,-8.53,-2.58,-10.12,,,0
127305452,0,201,201,127,197,201,181,165,2.02,1.82,124.10,0.05,-0.15,1.01,0.00,0.00,0.00,-8.53,-2.58,-10.12,,,0
127405452,0,202,201,127,197,201,181,154,3.07,2.24,126.65,0.05,-0.15,1.01,0.00,0.00,0.00,-8.53,-2.58,-10.12,,,0
127505452,0,201,201,127,197,201,181,152,5.18,2.91,125.80,0.05,-0.15,1.01,-0.06,0.00,0.00,-8.53,-2.58,-10.12,,,0
127605456,0,202,201,127,198,201,181,152,2.02,1.82,125.80,0.05,-0.15,1.01,-0.06,0.00,0.00,-8.53,-2.58,-10.12,,,0
127705448,0,201,201,127,197,201,181,160,6.23,3.19,124.78,0.05,-0.15,1.01,-0.06,0.00,0.00,-8.53,-2.58,-10.12,,,0
127805448,0,202,201,127,197,201,181,156,-0.08,-0.37,124.95,0.05,-0.15,1.01,0.00,0.00,0.00,-8.54,-2.58,-10.12,,,0
127905456,0,201,202,127,197,201,181,163,10.44,4.13,123.93,0.05,-0.15,1.01,0.00,0.00,0.00,-8.54,-2.58,-10.12,,,0
128005452,0,202,202,127,197,201,182,150,2.02,1.82,123.42,0.05,-0.15,1.01,0.06,0.00,0.06,-8.54,-2.58,-10.12,,,0
128105456,0,202,202,127,198,201,181,162,3.07,2.24,125.12,0.05,-0.15,1.01,0.00,0.00,0.00,-8.54,-2.59,-10.12,,,0
