time_us,gps_sec,raw1,raw2,raw3,raw4,raw5,raw6,vl53_mm,pitot_pa,air_speed,ultrason_mm,accX,accY,accZ,gyroX,gyroY,gyroZ,roll,pitch,yaw,lat,lon,gps_valid
1258346512,0,212,211,152,207,211,293,126,5.18,2.91,nan,-0.08,-0.06,1.02,0.00,0.00,0.00,-3.11,4.38,-167.97,,,0
1258507788,0,212,212,152,207,211,294,126,2.02,1.82,nan,-0.08,-0.06,1.02,0.06,0.00,-0.06,-3.11,4.38,-167.97,,,0
1258607780,0,212,212,152,207,211,293,125,-0.08,-0.37,nan,-0.08,-0.06,1.02,0.06,0.00,0.00,-3.10,4.38,-167.97,,,0
1258707784,0,212,212,153,207,211,294,130,2.02,1.82,nan,-0.08,-0.06,1.02,0.00,0.00,0.00,-3.10,4.38,-167.97,,,0
1258807780,0,212,212,153,207,211,294,127,5.18,2.91,nan,-0.08,-0.06,1.02,0.00,0.06,0.00,-3.11,4.38,-167.97,,,0
1258907784,0,212,212,153,207,211,293,128,2.02,1.82,nan,-0.08,-0.06,1.02,0.00,0.00,0.00,-3.11,4.38,-167.97,,,0
1259007788,0,212,212,153,207,212,293,124,-3.24,-2.30,nan,-0.08,-0.06,1.02,0.00,0.00,-0.06,-3.11,4.38,-167.97,,,0
1259107792,0,212,212,153,208,212,293,126,2.02,1.82,nan,-0.08,-0.06,1.02,0.06,0.06,0.00,-3.11,4.38,-167.97,,,0
1259207780,0,212,212,153,207,212,294,127,3.07,2.24,nan,-0.08,-0.06,1.02,0.00,0.00,0.00,-3.11,4.38,-167.97,,,0
1259307780,0,212,211,153,208,212,293,125,-0.08,-0.37,nan,-0.08,-0.06,1.02,0.00,0.00,-0.06,-3.11,4.38,-167.97,,,0
1259407780,0,212,212,153,207,212,294,126,5.18,2.91,nan,-0.08,-0.06,1.02,0.06,0.00,0.00,-3.11,4.38,-167.97,,,0
1259507792,0,212,212,153,208,211,294,127,8.33,3.69,nan,-0.08,-0.06,1.02,0.00,0.00,0.00,-3.11,4.39,-167.97,,,0
1259607792,0,212,212,153,208,212,294,127,2.02,1.82,nan,-0.08,-0.06,1.02,0.00,0.00,0.00,-3.11,4.38,-167.97,,,0
1259707780,0,212,212,153,207,211,293,128,6.23,3.19,nan,-0.08,-0.06,1.02,0.06,0.00,0.00,-3.11,4.38,-167.97,,,0
1259807792,0,212,212,154,207,212,294,128,-0.08,-0.37,nan,-0.08,-0.06,1.02,0.06,0.00,0.00,-3.11,4.38,-167.97,,,0
1259907788,0,213,212,155,207,211,294,129,3.07,2.24,nan,-0.08,-0.06,1.02,0.00,0.00,0.00,-3.11,4.38,-167.97,,,0
1260007780,0,212,212,158,209,210,294,127,-2.19,-1.89,nan,-0.08,-0.06,1.02,0.00,0.00,0.00,-3.11,4.39,-167.97,,,0
1260107800,0,212,212,159,209,208,294,125,-0.08,-0.37,nan,-0.08,-0.06,1.02,0.18,0.00,0.00,-3.11,4.38,-167.97,,,0
1260207796,0,212,212,161,208,208,294,128,2.02,1.82,nan,-0.08,-0.05,1.01,0.12,0.00,0.00,-3.11,4.39,-167.97,,,0
1260307796,0,212,212,161,207,207,294,125,5.18,2.91,nan,-0.08,-0.05,1.01,0.06,0.00,0.00,-3.11,4.39,-167.97,,,0
1260407796,0,212,212,160,208,207,294,127,2.02,1.82,nan,-0.08,-0.06,1.01,0.12,0.00,-0.06,-3.10,4.39,-167.97,,,0
1260507792,0,212,212,157,208,208,294,127,2.02,1.82,nan,-0.08,-0.06,1.02,0.12,-0.12,-0.06,-3.09,4.38,-167.97,,,0
1260607792,0,212,212,155,208,209,294,129,-3.24,-2.30,nan,-0.08,-0.05,1.02,-0.06,0.00,0.00,-3.09,4.39,-167.97,,,0
1260707788,0,212,212,156,208,210,295,126,3.07,2.24,nan,-0.08,-0.05,1.02,0.00,0.06,0.00,-3.10,4.39,-167.97,,,0
1260807784,0,212,211,161,207,210,294,123,-0.08,-0.37,nan,-0.08,-0.06,1.02,0.06,0.00,-0.06,-3.10,4.39,-167.97,,,0
1260907780,0,212,212,164,207,208,294,125,3.07,2.24,nan,-0.08,-0.05,1.02,0.06,-0.06,0.00,-3.10,4.38,-167.97,,,0
1261007800,0,212,212,167,207,211,294,124,2.02,1.82,nan,-0.08,-0.06,1.02,0.00,0.06,-0.06,-3.10,4.39,-167.97,,,0
1261107784,0,212,211,168,207,211,294,126,3.07,2.24,nan,-0.06,-0.04,1.01,0.06,0.12,-0.06,-3.10,4.38,-167.97,,,0
1261207784,0,212,212,169,207,212,295,124,2.02,1.82,nan,-0.08,-0.06,1.02,0.24,0.00,-0.12,-3.09,4.37,-167.97,,,0
1261307780,0,212,212,170,207,212,294,128,2.02,1.82,nan,-0.08,-0.05,1.02,0.18,0.00,0.00,-3.07,4.37,-167.97,,,0
1261407780,0,212,212,170,209,211,294,124,8.33,3.69,nan,-0.08,-0.05,1.01,-0.24,0.12,0.06,-3.08,4.37,-167.97,,,0
1261507780,0,212,213,170,208,212,294,127,3.07,2.24,nan,-0.08,-0.06,1.02,-0.12,0.00,-0.06,-3.09,4.38,-167.97,,,0
1261607792,0,212,213,170,208,212,295,128,-0.08,-0.37,nan,-0.08,-0.06,1.02,0.18,0.00,-0.06,-3.10,4.38,-167.97,,,0
1261707784,0,213,213,171,208,214,296,126,-0.08,-0.37,nan,-0.08,-0.05,1.01,0.12,0.06,-0.06,-3.08,4.38,-167.97,,,0
1261807784,0,212,214,172,209,215,295,127,2.02,1.82,nan,-0.08,-0.06,1.02,-0.06,0.00,-0.06,-3.07,4.38,-167.97,,,0
1261907792,0,214,214,172,209,215,296,124,-0.08,-0.37,nan,-0.08,-0.06,1.02,-0.06,0.06,0.00,-3.08,4.38,-167.97,,,0
1262007788,0,213,213,173,209,214,295,128,3.07,2.24,nan,-0.08,-0.05,1.01,0.12,0.06,0.00,-3.09,4.38,-167.97,,,0
1262107792,0,213,213,173,208,213,295,125,2.02,1.82,nan,-0.08,-0.05,1.02,0.12,0.06,0.00,-3.08,4.38,-167.97,,,0
1262207784,0,213,213,174,208,213,296,125,-2.19,-1.89,nan,-0.08,-0.06,1.02,0.00,0.00,-0.06,-3.07,4.38,-167.97,,,0
1262307792,0,213,213,173,207,213,295,124,2.02,1.82,nan,-0.08,-0.05,1.01,-0.06,0.00,0.00,-3.08,4.38,-167.97,,,0
1262407788,0,213,213,173,208,213,295,125,2.02,1.82,nan,-0.08,-0.06,1.02,0.12,0.00,0.00,-3.08,4.38,-167.97,,,0
1262507784,0,213,213,174,208,213,295,126,5.18,2.91,nan,-0.08,-0.06,1.02,0.06,0.00,0.00,-3.07,4.38,-167.97,,,0
1262607784,0,212,213,174,209,213,295,129,5.18,2.91,nan,-0.08,-0.05,1.01,-0.06,0.06,0.00,-3.07,4.38,-167.97,,,0
1262707780,0,213,213,173,209,216,295,125,2.02,1.82,nan,-0.08,-0.06,1.02,0.12,0.00,0.00,-3.07,4.38,-167.97,,,0
1262807784,0,213,213,173,209,216,296,126,5.18,2.91,nan,-0.08,-0.06,1.02,0.00,0.00,-0.06,-3.07,4.38,-167.97,,,0
1262907788,0,213,213,174,209,215,296,124,5.18,2.91,nan,-0.08,-0.05,1.01,0.00,0.06,0.00,-3.07,4.38,-167.97,,,0
1263007788,0,213,213,174,210,214,295,123,3.07,2.24,nan,-0.08,-0.06,1.02,0.00,0.00,-0.06,-3.07,4.39,-167.97,,,0
1263107792,0,213,212,174,208,214,295,124,8.33,3.69,nan,-0.08,-0.05,1.01,0.00,0.00,-0.06,-3.07,4.39,-167.97,,,0
1263207788,0,212,213,174,209,214,295,127,3.07,2.24,nan,-0.08,-0.05,1.02,0.06,0.00,0.00,-3.06,4.39,-167.97,,,0
1263307788,0,214,213,174,208,213,296,125,-0.08,-0.37,nan,-0.08,-0.06,1.02,0.00,0.00,-0.06,-3.06,4.39,-167.97,,,0
