time_us,gps_sec,raw1,raw2,raw3,raw4,raw5,raw6,vl53_mm,pitot_pa,air_speed,ultrason_mm,accX,accY,accZ,gyroX,gyroY,gyroZ,roll,pitch,yaw,lat,lon,gps_valid
103057416,0,221,221,143,206,219,199,159,-8.50,-3.73,117.13,0.05,-0.16,1.01,-0.55,0.37,-0.12,-9.00,-2.83,-0.47,,,0
103187936,0,218,218,141,207,217,196,158,-0.08,-0.37,113.56,0.05,-0.16,1.01,-0.61,-0.43,-0.31,-9.07,-2.85,-0.47,,,0
103287936,0,221,222,145,200,222,200,158,-19.02,-5.57,122.06,0.05,-0.16,1.01,-0.79,0.49,-0.43,-9.15,-2.85,-0.47,,,0
103387944,0,224,225,151,184,228,205,157,-20.07,-5.72,125.63,0.05,-0.16,1.01,-1.10,-0.12,-1.46,-9.21,-2.82,-0.53,,,0
103487936,0,228,229,152,188,228,208,154,2.02,1.82,143.48,0.05,-0.17,1.01,-1.65,0.98,-2.69,-9.37,-2.81,-0.74,,,0
103587936,0,229,230,152,199,230,208,156,-5.34,-2.95,224.57,0.05,-0.16,1.01,-1.22,-0.37,-4.09,-9.47,-2.80,-1.09,,,0
103687940,0,226,227,149,215,227,205,156,-11.66,-4.36,272.00,0.05,-0.17,1.01,-0.18,0.12,-5.74,-9.54,-2.92,-1.55,,,0
103787936,0,230,230,152,249,230,209,155,-16.92,-5.26,126.65,0.05,-0.17,1.01,-0.49,2.32,-6.59,-9.55,-2.88,-2.19,,,0
103887944,0,228,228,150,265,226,206,159,-15.87,-5.09,124.10,0.04,-0.16,1.01,0.92,3.11,-8.18,-9.46,-2.72,-2.96,,,0
103987948,0,228,229,151,258,228,207,154,-2.19,-1.89,127.84,0.03,-0.17,1.01,-1.77,1.89,-10.31,-9.43,-2.57,-3.92,,,0
104087944,0,226,225,148,242,225,204,154,-0.08,-0.37,148.24,0.04,-0.16,1.01,-3.48,1.34,-11.41,-9.64,-2.55,-5.02,,,0
104187944,0,221,221,143,229,220,199,149,3.07,2.24,135.66,0.02,-0.17,1.01,-2.99,3.60,-11.66,-9.82,-2.46,-6.20,,,0
104287944,0,215,215,138,219,214,194,156,3.07,2.24,488.58,0.02,-0.16,1.01,-2.50,1.77,-11.78,-9.92,-2.26,-7.42,,,0
104387944,0,213,213,136,213,212,191,156,3.07,2.24,484.67,0.03,-0.17,1.01,-1.71,-2.87,-9.58,-10.09,-2.41,-8.46,,,0
104487940,0,213,213,136,212,213,192,155,2.02,1.82,159.12,0.04,-0.17,1.00,-0.55,-4.46,-6.35,-10.07,-2.86,-9.18,,,0
104587936,0,213,213,136,210,212,191,155,2.02,1.82,142.12,0.06,-0.13,1.04,-1.40,0.37,-4.21,-9.97,-3.19,-9.60,,,0
104687948,0,212,212,134,209,211,191,156,2.02,1.82,138.04,0.04,-0.17,1.01,-1.83,-2.20,-2.93,-9.83,-3.09,-9.95,,,0
104787936,0,212,211,134,207,210,190,158,6.23,3.19,143.14,0.04,-0.17,1.01,-0.49,0.18,-1.34,-9.82,-3.15,-10.13,,,0
104887948,0,211,211,134,207,210,190,161,3.07,2.24,142.29,0.05,-0.17,1.01,0.73,0.24,0.00,-9.85,-3.13,-10.21,,,0
104987940,0,211,211,134,207,210,190,155,2.02,1.82,146.37,0.04,-0.17,1.01,0.67,-0.43,0.67,-9.77,-3.03,-10.18,,,0
105087944,0,211,211,133,206,210,190,153,3.07,2.24,142.80,0.04,-0.16,1.01,1.22,-0.31,-0.12,-9.61,-2.98,-10.14,,,0
105187936,0,211,211,133,206,210,190,157,6.23,3.19,133.11,0.04,-0.17,1.01,0.73,0.06,-0.18,-9.49,-2.96,-10.16,,,0
105287936,0,214,213,135,208,209,191,152,5.18,2.91,141.61,0.04,-0.16,1.01,-0.55,-0.06,0.24,-9.42,-2.92,-10.15,,,0
105387948,0,217,217,140,212,203,196,164,3.07,2.24,142.63,0.04,-0.16,1.01,0.06,0.06,0.00,-9.42,-2.88,-10.15,,,0
105487940,0,220,219,143,216,209,199,159,2.02,1.82,142.12,0.04,-0.16,1.01,0.12,-0.12,0.00,-9.41,-2.85,-10.13,,,0
105587948,0,221,220,142,214,218,199,161,2.02,1.82,142.29,0.04,-0.16,1.01,-0.31,-0.24,0.06,-9.38,-2.81,-10.14,,,0
105687940,0,220,220,142,216,230,198,155,2.02,1.82,142.80,0.04,-0.16,1.01,-0.12,0.18,0.00,-9.39,-2.80,-10.13,,,0
105787944,0,220,219,142,214,233,198,156,-3.24,-2.30,137.53,0.05,-0.16,1.01,0.18,0.00,0.06,-9.38,-2.76,-10.12,,,0
105887940,0,224,224,146,220,218,203,156,-2.19,-1.89,141.61,0.04,-0.16,1.01,0.24,-0.12,-0.06,-9.33,-2.74,-10.12,,,0
105987944,0,227,227,148,222,201,205,145,-3.24,-2.30,143.31,0.04,-0.16,1.01,-0.12,-0.06,0.18,-9.31,-2.72,-10.12,,,0
106087936,0,225,226,149,222,203,205,153,3.07,2.24,138.04,0.04,-0.16,1.01,-0.37,-0.06,-0.06,-9.34,-2.70,-10.12,,,0
106187940,0,227,228,150,224,225,207,162,2.02,1.82,142.29,0.04,-0.16,1.01,-0.85,0.12,0.31,-9.39,-2.68,-10.12,,,0
106287940,0,229,229,151,224,253,208,156,-3.24,-2.30,136.51,0.05,-0.16,1.01,0.00,-0.12,0.06,-9.43,-2.66,-10.12,,,0
106387948,0,227,227,148,221,265,206,167,2.02,1.82,138.72,0.04,-0.17,1.01,0.24,-0.12,0.12,-9.43,-2.63,-10.12,,,0
106487948,0,227,227,150,222,255,206,158,-3.24,-2.30,135.15,0.04,-0.17,1.01,0.85,0.12,0.00,-9.38,-2.63,-10.12,,,0
106587936,0,228,228,151,224,225,207,160,-0.08,-0.37,134.30,0.04,-0.16,1.01,0.61,-0.31,0.12,-9.27,-2.63,-10.12,,,0
106687940,0,227,227,150,222,217,205,153,3.07,2.24,138.38,0.04,-0.16,1.01,0.18,-0.18,-0.12,-9.22,-2.61,-10.12,,,0
106787940,0,224,225,148,220,220,203,156,5.18,2.91,131.75,0.04,-0.16,1.01,-0.31,0.00,0.06,-9.26,-2.61,-10.12,,,0
106887948,0,220,221,143,216,218,198,156,6.23,3.19,140.25,0.04,-0.16,1.01,-0.24,0.00,0.12,-9.28,-2.60,-10.12,,,0
106987936,0,217,217,140,212,216,196,160,2.02,1.82,134.30,0.04,-0.16,1.01,0.18,-0.06,0.00,-9.27,-2.59,-10.12,,,0
107087948,0,215,215,137,211,215,194,157,5.18,2.91,133.28,0.04,-0.17,1.01,0.18,-0.31,-0.06,-9.24,-2.58,-10.12,,,0
107187948,0,217,218,140,221,218,197,157,-0.08,-0.37,134.13,0.04,-0.17,1.01,-0.12,0.18,0.12,-9.23,-2.58,-10.12,,,0
107287936,0,224,224,144,240,221,199,160,-8.50,-3.73,133.28,0.04,-0.17,1.01,0.49,-0.06,0.00,-9.24,-2.57,-10.12,,,0
107387948,0,227,228,148,240,224,203,151,-19.02,-5.57,133.62,0.04,-0.17,1.01,0.31,-0.31,0.12,-9.22,-2.55,-10.12,,,0
107487940,0,225,226,146,231,222,202,161,-10.60,-4.16,129.37,0.05,-0.16,1.01,0.67,0.24,0.18,-9.17,-2.55,-10.12,,,0
107587936,0,238,239,148,228,225,205,159,-13.76,-4.74,127.84,0.04,-0.16,1.01,1.16,-0.24,-0.12,-9.10,-2.56,-10.12,,,0
107687956,0,266,267,154,232,230,210,155,-5.34,-2.95,130.73,0.05,-0.16,1.01,0.12,-0.06,0.06,-9.05,-2.57,-10.12,,,0
107787948,0,274,274,152,228,229,208,161,-3.24,-2.30,132.43,0.04,-0.16,1.01,0.00,-0.12,0.06,-9.06,-2.57,-10.12,,,0
107887944,0,262,263,153,228,230,210,161,-0.08,-0.37,133.28,0.05,-0.16,1.01,0.06,-0.06,0.12,-9.08,-2.57,-10.12,,,0
107987948,0,242,244,155,231,233,213,158,2.02,1.82,134.30,0.04,-0.16,1.01,0.31,0.12,-0.06,-9.07,-2.57,-10.12,,,0
