time_us,gps_sec,raw1,raw2,raw3,raw4,raw5,raw6,vl53_mm,pitot_pa,air_speed,ultrason_mm,accX,accY,accZ,gyroX,gyroY,gyroZ,roll,pitch,yaw,lat,lon,gps_valid
445205516,0,220,220,146,216,216,198,146,-0.08,-0.37,115.26,0.04,-0.11,1.01,0.18,0.06,0.06,-6.06,-2.43,-4.97,,,0
445336960,0,219,220,145,215,216,198,154,2.02,1.82,115.26,0.04,-0.11,1.01,0.00,0.00,0.12,-6.04,-2.42,-4.97,,,0
445436952,0,219,219,143,214,217,197,144,-2.19,-1.89,116.79,0.04,-0.11,1.01,0.00,0.00,0.12,-6.04,-2.42,-4.97,,,0
445536952,0,219,219,141,214,217,198,146,-0.08,-0.37,111.69,0.04,-0.11,1.01,-0.18,0.00,0.06,-6.05,-2.42,-4.97,,,0
445636964,0,219,218,141,214,217,196,148,3.07,2.24,111.69,0.04,-0.11,1.01,-0.12,0.00,-0.06,-6.06,-2.42,-4.97,,,0
445736968,0,218,218,140,214,217,197,151,5.18,2.91,112.71,0.04,-0.11,1.01,0.00,0.00,-0.06,-6.08,-2.43,-4.97,,,0
445836964,0,218,218,140,214,217,197,151,2.02,1.82,111.69,0.04,-0.11,1.01,0.06,0.00,-0.06,-6.08,-2.43,-4.97,,,0
445936960,0,218,218,140,213,218,196,149,-2.19,-1.89,111.69,0.04,-0.11,1.01,0.18,0.06,0.00,-6.08,-2.43,-4.97,,,0
446036964,0,218,219,139,214,218,197,149,2.02,1.82,112.71,0.04,-0.11,1.01,0.31,0.06,0.00,-6.06,-2.42,-4.97,,,0
446136964,0,218,219,140,214,218,198,142,3.07,2.24,111.69,0.04,-0.11,1.01,0.24,0.12,0.00,-6.03,-2.42,-4.97,,,0
446236960,0,219,219,140,214,217,197,142,3.07,2.24,115.77,0.04,-0.11,1.01,0.06,0.00,-0.06,-6.02,-2.42,-4.97,,,0
446336956,0,219,220,140,214,218,197,149,2.02,1.82,116.96,0.04,-0.11,1.01,-0.24,0.00,0.00,-6.03,-2.41,-4.97,,,0
446436960,0,222,220,140,215,224,200,151,-3.24,-2.30,115.77,0.04,-0.11,1.01,-0.24,0.00,0.00,-6.05,-2.42,-4.97,,,0
446536964,0,227,228,148,221,246,205,148,-0.08,-0.37,115.26,0.04,-0.11,1.01,0.06,0.00,-0.06,-6.06,-2.42,-4.97,,,0
446636952,0,226,229,149,222,250,206,149,-2.19,-1.89,112.20,0.04,-0.11,1.01,0.43,0.12,-0.12,-6.04,-2.42,-4.97,,,0
446736964,0,230,229,151,226,244,207,151,3.07,2.24,115.26,0.04,-0.11,1.01,0.49,0.12,0.06,-5.99,-2.41,-4.97,,,0
446836964,0,227,227,152,222,242,207,148,-2.19,-1.89,115.26,0.04,-0.11,1.01,-0.06,-0.06,0.18,-5.98,-2.40,-4.97,,,0
446936964,0,224,224,160,220,239,203,150,-0.08,-0.37,112.71,0.04,-0.11,1.01,-0.55,-0.06,0.06,-6.00,-2.41,-4.97,,,0
447036964,0,222,222,154,218,235,200,149,2.02,1.82,111.69,0.04,-0.11,1.01,-0.79,-0.24,-0.06,-6.08,-2.42,-4.97,,,0
447136952,0,222,222,151,217,233,201,153,-2.19,-1.89,115.77,0.04,-0.11,1.01,-0.85,-0.24,-0.06,-6.16,-2.44,-4.97,,,0
447236964,0,221,221,148,216,226,200,149,3.07,2.24,113.39,0.04,-0.11,1.01,-0.79,-0.24,0.00,-6.25,-2.48,-4.97,,,0
447336956,0,220,221,156,216,223,199,144,3.07,2.24,112.20,0.04,-0.11,1.01,-0.73,-0.24,0.00,-6.32,-2.50,-4.97,,,0
447436972,0,220,220,150,215,223,198,154,3.07,2.24,116.45,0.04,-0.11,1.01,-0.98,-0.31,0.00,-6.41,-2.53,-4.97,,,0
447536952,0,220,219,147,215,221,198,155,5.18,2.91,113.90,0.05,-0.12,1.01,-1.28,-0.43,0.12,-6.51,-2.57,-4.97,,,0
447636964,0,220,220,159,215,223,198,154,2.02,1.82,121.89,0.05,-0.12,1.01,-1.53,-0.55,0.06,-6.66,-2.61,-4.97,,,0
447736960,0,219,219,153,215,221,198,149,-0.08,-0.37,126.65,0.05,-0.12,1.01,-1.95,-0.73,0.12,-6.84,-2.68,-4.97,,,0
447836960,0,219,219,153,215,220,198,154,-0.08,-0.37,127.50,0.05,-0.12,1.01,-2.38,-0.79,0.18,-7.05,-2.75,-4.97,,,0
447936952,0,220,219,169,214,220,197,156,-0.08,-0.37,128.52,0.05,-0.13,1.01,-2.81,-0.92,0.12,-7.31,-2.83,-4.97,,,0
448036960,0,219,219,160,215,219,198,153,-2.19,-1.89,122.23,0.05,-0.14,1.01,-2.93,-0.92,0.12,-7.59,-2.93,-4.97,,,0
448136952,0,219,220,153,215,219,197,152,2.02,1.82,117.81,0.06,-0.14,1.01,-2.44,-0.61,0.06,-7.86,-2.99,-4.97,,,0
448236960,0,220,220,156,216,224,198,165,8.33,3.69,118.49,0.06,-0.14,1.01,-1.22,-0.24,-0.18,-8.03,-3.05,-4.97,,,0
448336964,0,220,221,153,215,223,198,149,-0.08,-0.37,126.99,0.05,-0.14,1.01,0.12,0.06,-0.24,-8.07,-3.06,-4.97,,,0
448436960,0,220,220,148,215,222,198,152,5.18,2.91,120.02,0.05,-0.14,1.01,0.98,0.24,-0.06,-8.01,-3.05,-4.97,,,0
448536960,0,220,219,154,215,222,198,153,-2.19,-1.89,117.13,0.05,-0.14,1.01,1.28,0.43,-0.18,-7.89,-3.02,-4.97,,,0
448636952,0,219,220,156,215,220,198,158,2.02,1.82,120.02,0.05,-0.14,1.01,1.16,0.31,-0.06,-7.77,-2.98,-4.97,,,0
448736956,0,218,219,151,214,220,198,148,2.02,1.82,120.70,0.05,-0.14,1.01,0.98,0.31,-0.06,-7.67,-2.96,-4.97,,,0
448836960,0,217,219,146,215,219,197,146,3.07,2.24,120.70,0.05,-0.13,1.01,0.67,0.18,-0.12,-7.59,-2.93,-4.97,,,0
448936952,0,216,220,144,215,219,198,151,-0.08,-0.37,120.87,0.05,-0.13,1.01,0.12,0.00,-0.18,-7.55,-2.92,-4.97,,,0
449036960,0,216,219,142,215,219,198,155,-0.08,-0.37,120.70,0.05,-0.13,1.01,-0.24,-0.12,-0.18,-7.56,-2.93,-4.97,,,0
449136956,0,216,219,141,215,219,197,148,2.02,1.82,130.90,0.05,-0.13,1.01,-0.55,-0.18,-0.06,-7.60,-2.94,-4.97,,,0
449236956,0,215,218,141,215,218,197,160,-0.08,-0.37,123.42,0.05,-0.14,1.01,-0.67,-0.24,0.12,-7.67,-2.97,-4.97,,,0
449336952,0,215,218,140,214,219,197,153,-0.08,-0.37,124.27,0.05,-0.14,1.01,-0.73,-0.18,0.12,-7.73,-2.99,-4.97,,,0
449436964,0,214,218,140,215,218,198,157,2.02,1.82,124.27,0.05,-0.14,1.01,-0.55,-0.12,-0.06,-7.80,-3.00,-4.97,,,0
449536952,0,214,217,140,215,219,197,151,-0.08,-0.37,129.54,0.05,-0.14,1.01,-0.43,-0.12,-0.12,-7.85,-3.02,-4.97,,,0
449636952,0,213,216,140,215,219,197,155,2.02,1.82,124.27,0.05,-0.14,1.01,-0.18,-0.06,0.00,-7.88,-3.03,-4.97,,,0
449736964,0,213,216,140,215,219,198,154,-0.08,-0.37,124.27,0.05,-0.14,1.01,0.18,0.06,0.06,-7.89,-3.03,-4.97,,,0
449836956,0,212,216,139,215,220,198,149,3.07,2.24,125.29,0.05,-0.14,1.01,0.43,0.12,0.00,-7.86,-3.02,-4.97,,,0
449936964,0,213,216,140,215,219,198,158,5.18,2.91,132.09,0.05,-0.14,1.01,0.67,0.24,-0.06,-7.80,-3.00,-4.97,,,0
450036964,0,213,216,140,215,218,198,155,5.18,2.91,136.34,0.05,-0.14,1.01,0.49,0.12,0.06,-7.75,-2.98,-4.97,,,0
450136956,0,212,215,139,215,219,197,153,3.07,2.24,133.79,0.05,-0.14,1.01,0.12,0.06,0.06,-7.71,-2.97,-4.97,,,0
